CERT,NAME,CITY,STNAME,ZIP,ADDRESS,BKCLASS,CHARTER,ACTIVE,INSDATE,REGAGENT,ASSET,DEP,LATITUDE,LONGITUDE,WEBADDR
0,The Bank of East Asia Ltd.,New York,New York,10022,540 Madison Ave,NC,0,1,12/31/9999,,,,40.7610901169298,-73.9737993264449,
10004,Ergo Bank,Markesan,Wisconsin,53946,86 E Water St,NM,0,1,01/01/1934,,254611,216536,43.706249996883,-88.9863210027042,www.ergobank.com
10011,Woodford State Bank,Monroe,Wisconsin,53566,403 W 8th St,NM,0,1,01/01/1934,,490950,381139,42.6040529890936,-89.6620579667678,www.woodfordstatebank.com
10012,The Portage County Bank,Almond,Wisconsin,54909,1155 County Road D,NM,0,1,01/01/1934,,220933,185973,44.2578870171019,-89.4103400266777,http://www.PORTAGECOUNTYBANK.COM
10015,Security Bank,New Auburn,Wisconsin,54757,112 E Main St,NM,0,1,01/01/1934,,230511,196313,45.2041540132855,-91.5608120018434,www.securityonlinebank.com
10044,National Exchange Bank and Trust,Fond Du Lac,Wisconsin,54935,130 S Main St,N,13879,1,01/01/1934,,2919051,2321022,43.7751139950823,-88.4475480245648,https://www.nebat.com
1005,Isabella Bank,Mount Pleasant,Michigan,48858,139 E Broadway St,SM,0,1,01/01/1934,,2210646,1950278,43.6042419837808,-84.77510499059,www.isabellabank.com
10055,First Southern Bank,Waycross,Georgia,31501,930 Memorial Dr,NM,0,1,01/01/1934,,324134,292274,31.2097449839161,-82.345320006062,www.fsb-bank.bank
10057,Bank of Hancock County,Sparta,Georgia,31087,12855 Broad St,NM,0,1,01/01/1934,,80515,67132,33.2763470072655,-82.972288961975,www.bankofhancock.com
10072,Planters and Citizens Bank,Camilla,Georgia,31730,21 N Harney St,NM,0,1,01/01/1934,,148940,127383,31.2318460090234,-84.2083180156575,http://www.pcbank.net
10074,Apex Banking Company of Georgia,Cleveland,Georgia,30528,35 Jesse Mae Thurmond Conn,NM,0,1,01/01/1934,,69563,63680,34.577834282339,-83.764276552836,www.apexga.bank
10075,Peoples State Bank of Colfax,Colfax,Illinois,61728,101 W Main St,NM,0,1,01/01/1934,,48864,43038,40.5672510203753,-88.6163929983119,http://www.psbofcolfax.com
10077,Farmers State Bank of Emden,Emden,Illinois,62635,205 Lincoln St,NM,0,1,01/01/1934,,37470,26226,40.2992860182651,-89.4858080006604,
1008,Bank Michigan,Brooklyn,Michigan,49230,417 S Main St,SM,0,1,01/01/1934,,141120,115241,42.0976269906841,-84.2471630239148,http://www.bankmichigan.bank
10101,The Napoleon State Bank,Napoleon,Indiana,47034,8912 N Us Highway 421,NM,0,1,01/01/1934,,490327,434681,39.2046590825134,-85.3305495831233,www.napoleonstatebank.com
10111,Ohnward Bank & Trust,Cascade,Iowa,52033,332 1st Ave W,NM,0,1,01/01/1934,,477113,399409,42.2984940196846,-91.016013022054,www.ohnwardbank.bank
10118,Leighton State Bank,Pella,Iowa,50219,900 Washington St,NM,0,1,01/01/1934,,281589,238346,41.408333010696,-92.9205720279927,www.leightonbank.com
10120,American Trust and Savings Bank,Lowden,Iowa,52255,309 Mckinley Ave,NM,0,1,01/01/1934,,30365,25458,41.8578939986685,-90.9284620317297,www.atsb-lowden.com
10121,Liberty Trust & Savings Bank,Durant,Iowa,52747,502 8th Ave,NM,0,1,01/01/1934,,176513,141769,41.6006559886041,-90.9086700113996,www.mylibertytrust.com
10122,Farmers Savings Bank & Trust,Traer,Iowa,50675,611 2nd St,NM,0,1,01/01/1934,,227539,208796,42.1931280066227,-92.4648969864775,http://www.fsb-traer.com
10125,Citizens Savings Bank,Anamosa,Iowa,52205,215 E Main St,NM,0,1,01/01/1934,,172490,158476,42.1080930121746,-91.2834420014561,www.citizensbankia.com
10127,Success Bank,Bloomfield,Iowa,52537,109 N Madison St,NM,0,1,01/01/1934,,260224,217212,40.752479010612,-92.4153880180863,www.success.bank
10132,Exchange State Bank,Ames,Iowa,50010,823 Wheeler St,NM,0,1,01/01/1934,,142615,104948,42.054617014739,-93.6226040281461,www.esb1.com
10137,The Commercial Bank of Grayson,Grayson,Kentucky,41143,208 E Main St,NM,0,1,01/01/1934,,240831,213957,38.332442011839,-82.9465250032705,cbgrayson.com
1014,ChoiceOne Bank,Sparta,Michigan,49345,109 E Division St,SM,0,1,01/01/1934,,4291775,3568402,43.161133552511,-85.707452914541,www.choiceone.bank
10145,Hart County Bank and Trust Company,Munfordville,Kentucky,42765,331 Main St,NM,0,1,01/01/1934,,24020,16330,37.2719890192486,-85.8916559656577,
10157,The Shelby State Bank,Shelby,Michigan,49455,242 N Michigan Ave,NM,0,1,01/01/1934,,385800,345039,43.6126445362313,-86.3638798758723,www.shelbybank.com
10159,First State Bank and Trust,Bayport,Minnesota,55003,950 Highway 95 N,NM,0,1,01/01/1934,,425902,384580,45.0262090168084,-92.7843319870459,https://www.fsbt.com
10160,VersaBank USA National Association,Holdingford,Minnesota,56340,580 Main St,N,23457,1,01/01/1934,,297621,102465,45.7301740095625,-94.4754330043101,www.versabankusa.com
10162,First State Bank Minnesota,Le Roy,Minnesota,55951,102 W Main St,NM,0,1,01/04/1934,,100232,87660,43.5099330002023,-92.5039360357932,www.fsbminnesota.com
10163,Security State Bank of Marine,Marine On St. Croix,Minnesota,55047,120 Judd St,NM,0,1,01/01/1934,,234115,208287,45.1981190010897,-92.7696580406137,www.themarinebank.com
10165,Farmers and Merchants State Bank of Pierz,Pierz,Minnesota,56364,80 Main St N,NM,0,1,01/01/1934,,335016,308790,45.9793119998552,-94.1040029628687,www.fmpierz.com
10167,Citizens State Bank of Roseau,Roseau,Minnesota,56751,118 Main Ave S,NM,0,1,01/01/1934,,281100,246442,48.8455599913586,-95.7625989596185,www.citizensros.com
10168,First Farmers & Merchants Bank,Cannon Falls,Minnesota,55009,920 4th St S,NM,0,1,01/01/1934,,472137,426528,44.4946189140004,-92.9059442067027,www.ffmbank.com
10169,Sherburne State Bank,Becker,Minnesota,55308,12500 Sherburne Avenue,NM,0,1,01/01/1934,,322805,270807,45.3892090010407,-93.8696450339023,www.sherburnestatebank.com
10174,Farmers State Bank of Underwood,Underwood,Minnesota,56586,110 Main St S,NM,0,1,01/01/1934,,110054,100822,46.2851339933859,-95.8716839812098,www.farmerstbank.com
10175,Security State Bank of Hibbing,Hibbing,Minnesota,55746,701 E Howard St,NM,0,1,01/01/1934,,153473,138988,47.4277780006769,-92.9335499801364,www.ssbhibbing.com
10178,Produce State Bank,Hollandale,Minnesota,56045,109 Park Ave W,NM,0,1,01/01/1934,,108033,95554,43.761142988521,-93.2046036984446,www.producestatebank.com
10185,Elysian Bank,Elysian,Minnesota,56028,121 Main St E,NM,0,1,01/01/1934,,72165,62943,44.1984760035754,-93.6737529997126,www.elysianbank.net
10187,The Northern State Bank of Gonvick,Gonvick,Minnesota,56644,283 Main St,NM,0,1,01/01/1934,,48080,39508,47.7372739919169,-95.512571984675,www.nsbgonvick.com
10191,PrinsBank,Prinsburg,Minnesota,56281,508 3rd St,NM,0,1,01/01/1934,,198465,167164,44.940223011626,-95.1913529798348,www.prinsbank.com
10194,Pine River State Bank,Pine River,Minnesota,56474,103 Mill St,NM,0,1,01/01/1934,,182632,167505,46.7164850033431,-94.4051420290047,www.pineriverstatebank.com
10197,Hometown Community Bank,Cyrus,Minnesota,56323,100 E Main St,NM,0,1,01/01/1934,,99599,84778,45.6147740202093,-95.7378119955481,www.hcbmn.com
10200,State Bank of Jeffers,Jeffers,Minnesota,56145,104 E Whited St,NM,0,1,01/01/1934,,37388,32057,44.0559500513357,-95.1964494325641,statebankofjeffers.com
10202,Lowry State Bank,Lowry,Minnesota,56349,400 Florence Ave,NM,0,1,01/01/1934,,85765,70015,45.7049440199998,-95.5178209839006,www.lowrystate.bank
10212,Commerce Bank,Geneva,Minnesota,56035,101 Central Ave S,NM,0,1,01/01/1934,,240406,172558,43.8236610143556,-93.2673929693491,http://www.cbmn.bank
10214,Vermillion State Bank,Vermillion,Minnesota,55085,107 Main St E,NM,0,1,01/01/1934,,907276,787892,44.673269369953,-92.9650695402944,WWW.VERMILLIONBANK.COM
10218,Citizens Bank & Trust Co.,Hutchinson,Minnesota,55350,102 Main St S,NM,0,1,01/01/1934,,319911,289460,44.890923004081,-94.3696800406881,http://www.cbhutch.com
1022,"Clare Bank, National Association",Platteville,Wisconsin,53818,345 W Pine St,N,15649,1,01/01/1934,,319842,262880,42.7332870162713,-90.4821390148635,www.clarebank.com
10236,The Goose River Bank,Mayville,North Dakota,58257,44 Main St W,NM,0,1,01/01/1934,,178745,153637,47.5001690199134,-97.3273919882846,www.gooseriverbank.com
10243,First State Bank of Golva,Golva,North Dakota,58632,410 Terrell Ave,NM,0,1,04/01/1934,,112367,104909,46.7355673333217,-103.983503800582,fsbofgolva.com
10248,First International Bank & Trust,Watford City,North Dakota,58854,100 N Main St,NM,0,1,01/01/1934,,5680943,4998240,47.8017400055201,-103.282710976565,www.fibt.com
10250,Peoples State Bank of Velva,Velva,North Dakota,58790,101 Main St N,NM,0,1,01/01/1934,,187144,164937,48.0574797903823,-100.929461612171,www.psbvelva.com
10253,First Security Bank - West,Beulah,North Dakota,58523,100 E Main St,NM,0,1,01/01/1934,,67874,59940,47.263537337463,-101.777885496829,www.firstsecuritybanks.com
10255,The Old Fort Banking Company,Old Fort,Ohio,44861,8034 Main St,NM,0,1,01/01/1934,,870722,808754,41.2404690129871,-83.1500559687382,http://www.oldfortbank.com
10266,The Citizens Bank Company,Beverly,Ohio,45715,501 5th St,NM,0,1,01/01/1934,,331901,290488,39.549209996848,-81.6310410395409,www.thecitizens.com
1027,Fm Bank And Trust,Blytheville,Arkansas,72315,400 W Main St,SM,0,1,01/01/1934,,582391,513568,35.927793977749,-89.907253780359,www.fbtbly.com
1028,FBT Bank & Mortgage,Fordyce,Arkansas,71742,200 W 4th St,SM,0,1,01/01/1934,,258080,217351,33.8133066025624,-92.4143795074962,www.fbtbank.com
10280,The Farmers and Merchants Bank,Caldwell,Ohio,43724,430 North St,NM,0,1,01/01/1934,,130309,110939,39.7479359944109,-81.5164050187526,www.thefarmersmerchants.bank
10307,Builtwell Bank,Chattanooga,Tennessee,37402,728 Broad St,NM,0,1,01/01/1934,,2335891,2000445,35.047433173772,-85.310201246902,www.builtwell.bank
10308,The Bank of Fayette County,Piperton,Tennessee,38017,1265 Highway 57,SM,0,1,01/01/1934,,1076725,928518,35.0487430137809,-89.6208820350565,www.thebank1905.com
10315,Bank of Halls,Halls,Tennessee,38040,101 E Main St,SM,0,1,01/01/1934,,129080,117522,35.8751920032665,-89.3958339697662,www.bankofhalls.com
10317,Citizens Bank and Trust Company of Grainger County,Rutledge,Tennessee,37861,8335 Rutledge Pike,NM,0,1,01/01/1934,,267325,237716,36.2826589896729,-83.5090890077451,www.cbtgrainger.com
10319,Citizens Savings Bank and Trust Company,Nashville,Tennessee,37208,2013 Jefferson St,NM,0,1,01/01/1934,,187819,168834,36.1686369852017,-86.8098859986336,www.bankcbn.com
10327,Citizens State Bank of Luling,Luling,Texas,78648,200 S Magnolia Ave,NM,0,1,01/01/1934,,67711,55895,29.6793199794736,-97.6481700211988,www.csbsa.com
10330,Commercial State Bank,Palmer,Texas,75152,8045 N Interstate 45 Service Rd,NM,0,1,01/01/1934,,126323,113403,32.4336540151544,-96.6612859986077,www.csbpalmer.com
10344,Schertz Bank & Trust,Schertz,Texas,78154,519 Main St,NM,0,1,01/01/1934,,770162,661252,29.5534460058219,-98.2702319595358,www.schertzbank.com
10345,Peoples State Bank,Shepherd,Texas,77371,5850 Highway 59 S,NM,0,1,01/01/1934,,175963,148386,30.4922599355385,-94.9930587373367,www.psbtexas.com
10352,Crowell State Bank,Crowell,Texas,79227,100 E Commerce St,SM,0,1,01/01/1934,,53090,46625,33.9844180010187,-99.7247049769967,WWW.CROWELLSTATEBANK.COM
10363,Citizens and Farmers Bank,West Point,Virginia,23181,415 14th Street,NM,0,1,01/01/1934,,2686839,2306041,37.5376940088056,-76.7989750284697,www.cffc.com
10374,Banner Banks,Birnamwood,Wisconsin,54414,416 Main St,NM,0,1,01/01/1934,,123441,106594,44.9316510068866,-89.20870404188,WWW.BANNERBANKS.COM
10378,The Bank of New Glarus,New Glarus,Wisconsin,53574,501 1st St,NM,0,1,01/01/1934,,789029,604282,42.815234997689,-89.634185037405,www.thebankofnewglarus.bank
10380,Oostburg State Bank,Oostburg,Wisconsin,53070,905 Center Ave,NM,0,1,01/01/1934,,412219,362145,43.6228589870142,-87.7969919740208,www.oostburgstate.bank
10382,Farmers & Merchants Bank & Trust,Marinette,Wisconsin,54143,1644 Ludington St,NM,0,1,01/02/1934,,170339,143769,45.0998149929102,-87.6293320337447,http://www.fmmarinette.com
10383,State Bank Financial,La Crosse,Wisconsin,54601,401 Main St,SM,0,1,01/01/1934,,517512,439496,43.8124800165242,-91.2507850170372,www.statebankfinancial.bank
10384,Waumandee State Bank,Waumandee,Wisconsin,54622,S2021 County Road U,NM,0,1,01/01/1934,,342286,289531,44.3022300090186,-91.7069120107716,http://www.waumandeebank.com
1040,Midland States Bank,Effingham,Illinois,62401,1201 Network Centre Dr,SM,0,1,01/01/1934,,6902904,5610152,39.145854375859,-88.523855949065,www.midlandsb.com
10407,The Farmers State Bank of Brush,Brush,Colorado,80723,200 Clayton St,NM,0,1,01/01/1934,,116208,86669,40.2554720082579,-103.623559979547,www.fsbbrushakron.com
10434,State Bank of Graymont,Graymont,Illinois,61743,204 Main St,NM,0,1,01/01/1934,,307974,268231,40.8772039929764,-88.7766569986831,www.sbofgray.com
10437,First State Bank of Olmsted,Olmsted,Illinois,62970,185 N Front Street,NM,0,1,01/01/1934,,77782,68273,37.1813212689602,-89.0884253439124,www.firststatebank-olmsted.com
10438,Raritan State Bank,Raritan,Illinois,61471,106 E Main St,NM,0,1,01/01/1934,,247326,218232,40.6832446299209,-90.9046014044716,www.raritanstatebank.com
10446,"Frederick Community Bank, The",Paxton,Illinois,60957,106 N Market St,NM,0,1,01/01/1934,,187435,166258,40.4611629901739,-88.0976449735917,www.tfcbanks.com
10458,Farmers State Bank & Trust Co.,Mount Sterling,Illinois,62353,129 W Main St,NM,0,1,01/01/1934,,128573,116551,39.9862210126529,-90.7659279605215,www.fsb-tc.com
10460,Town & Country Bank Midwest,Quincy,Illinois,62301,524 N 30th St,NM,0,1,01/01/1934,,219093,184994,39.937605471321,-91.367133544463,www.tcbankmidwest.com
10463,Middletown State Bank,Middletown,Illinois,62666,100 N Madison St,NM,0,1,01/01/1934,,45363,38068,40.1005350007212,-89.59083400182,http://middletownstatebank.com
10464,Federated Bank,Onarga,Illinois,60955,107 N Chestnut St,NM,0,1,01/01/1934,,128364,107753,40.7152209899925,-88.0073009654914,www.federatedbank.com
10467,The Gifford State Bank,Gifford,Illinois,61847,304 S Main St,NM,0,1,01/01/1934,,193314,166232,40.3055519938029,-88.0217019971561,www.giffordbank.com
10469,Farmers & Merchants Bank of Hutsonville,Hutsonville,Illinois,62433,108 S Main St,NM,0,1,01/01/1934,,51980,42210,39.1094212252732,-87.6563737756112,
1047,Bank & Trust Company,Litchfield,Illinois,62056,401 N Madison St,NM,0,1,01/01/1934,,626039,522351,39.177522002336,-89.656856995847,www.banktr.com
10471,Camp Grove State Bank,Camp Grove,Illinois,61424,26 Main Street,SM,0,1,01/01/1934,,58549,43075,41.0782472987911,-89.6340970145065,www.campgrovestatebank.com
10473,Ipava State Bank,Lewistown,Illinois,61542,1203 S Main St,NM,0,1,01/01/1934,,214158,176545,40.387506932201,-90.154810608437,www.ipavastatebank.com
10474,Citizens State Bank,Lena,Illinois,61048,102 W Main St,NM,0,1,01/01/1934,,447664,400274,42.3779029969023,-89.8241830011011,http://www.csbnow.com
1049,First National Bank of Steeleville,Steeleville,Illinois,62288,400 W Broadway,N,14437,1,01/01/1934,,277537,232483,38.0070771603663,-89.6617332783359,www.bankatfnb.com
10492,Farmers and Merchants Savings Bank,Iowa City,Iowa,52246,2235 Mormon Trek Blvd,NM,0,1,01/01/1934,,120977,100027,41.636483176442,-91.568364264243,www.fmbankonline.com
10494,Mount Vernon Bank and Trust Company,Mount Vernon,Iowa,52314,206 1st St Sw,NM,0,1,01/01/1934,,181263,151559,41.922859992796,-91.4185959992086,www.mountvernonbank.com
10497,Iowa State Bank,Sac City,Iowa,50583,500 Audubon St,NM,0,1,01/01/1934,,200438,175633,42.4212950199941,-94.9898640136187,https://www.myisb.bank
105,Bank of Cave City,Cave City,Arkansas,72521,137 S Main St,SM,0,1,01/01/1934,,192461,169756,35.9399853720981,-91.5484305897487,www.bankofcavecity.com
10500,Farmers Savings Bank,Wever,Iowa,52658,3542 168th St,NM,0,1,01/01/1934,,133367,106842,40.7140639939877,-91.2301800359181,www.fsbwever.com
10503,The First State Bank,Ness City,Kansas,67560,206 N Pennsylvania Ave,SM,0,1,01/01/1934,,84124,74442,38.4552580157552,-99.90475303489,http://www.fsbnesscity.com
10505,The Kansas State Bank,Ottawa,Kansas,66067,236 N Main St,NM,0,1,01/01/1934,,183366,163240,38.6199329926725,-95.2689269908093,http://www.MyKansasStateBank.com
10520,The Citizens Bank,Morehead,Kentucky,40351,114 W Main St,NM,0,1,01/01/1934,,225225,176662,38.1804330126291,-83.4356770307923,www.tcbanytime.com
10523,Bank of Commerce & Trust Co.,Crowley,Louisiana,70526,326 N Avenue G,NM,0,1,01/01/1934,,365649,323955,30.212493097312,-92.371082600671,https://www.bankofcommerceandtrust.com
10528,"Exchange Bank and Trust Company, Natchitoches, Louisiana",Natchitoches,Louisiana,71457,700 Front St,NM,0,1,01/01/1934,,183619,162932,31.7617860118681,-93.0863359817706,www.exchange-bank.com
10531,Citizens Progressive Bank,Winnsboro,Louisiana,71295,3540 Front St,NM,0,1,01/01/1934,,270718,236684,32.1743230019576,-91.7258820178573,cpbonline.com
10532,CLB The Community Bank,Jonesville,Louisiana,71343,301 Mound St,NM,0,1,01/01/1934,,322360,286044,31.6261679919558,-91.8135599940147,www.clbbank.com
10533,Winnsboro State Bank & Trust Company,Winnsboro,Louisiana,71295,3875 Front St,NM,0,1,01/01/1934,,381327,332275,32.1634180201979,-91.719041965771,WWW.WINNSBOROBANK.COM
10561,Arcadian Bank,Hartland,Minnesota,56042,601 Broadway St,NM,0,1,01/01/1934,,235865,200832,43.803965008726,-93.487088015995,www.arcadian.bank
10567,United Minnesota Bank,New London,Minnesota,56273,105 Central Ave E,NM,0,1,01/01/1934,,49764,45599,45.3016060010072,-94.9420480220309,www.umbnl.com
10571,Farmers and Merchants State Bank of Alpha,Alpha,Minnesota,56111,210 Main St N,NM,0,1,01/01/1934,,43675,37561,43.639147539455,-94.871299730088,famstatebankofalpha.com
10576,First Southeast Bank,Harmony,Minnesota,55939,3 Main Ave N,NM,0,1,01/01/1934,,149766,110666,43.5545150020879,-92.0102840159136,http://www.firstsoutheastbank.com
1058,Midwest BankCentre,Lemay,Missouri,63125,2191 Lemay Ferry Rd,SM,0,1,01/01/1934,,2982595,2487454,38.5247100044623,-90.2984829667483,www.midwestbankcentre.com
10594,Bank of Franklin,Meadville,Mississippi,39653,9 Main St E,NM,0,1,01/01/1934,,252140,211139,31.472606821143,-90.8892594878325,www.bankoffranklin.com
10595,Community First Bank,Butler,Missouri,64730,915 W Fort Scott St,NM,0,1,01/01/1934,,249010,223739,38.256889722061,-94.3464420686189,www.communityfirstbank.net
10597,TBO Bank,Orrick,Missouri,64077,113 E South Front St,NM,0,1,01/01/1934,,209807,180540,39.212440005137,-94.122178030257,www.tbobank.com
1060,Wood & Huston Bank,Marshall,Missouri,65340,27 E North St,NM,0,1,01/01/1934,,1207795,1059796,39.1216020095728,-93.1964020213096,www.woodhuston.com
10608,UNICO Bank,Mineral Point,Missouri,63660,625 Veterans Dr,NM,0,1,01/01/1934,,505773,457294,37.9239570013825,-90.7627939669242,www.unicobank.com
10618,BTC Bank,Bethany,Missouri,64424,3606 Miller St,NM,0,1,01/01/1934,,1476143,1086418,40.2646149882416,-94.0168490232978,btcbank.bank
10619,Hawthorn Bank,Jefferson City,Missouri,65101,132 E High St,NM,0,1,01/01/1934,,1920954,1547747,38.5759960201457,-92.171532973727,WWW.HAWTHORNBANK.COM
10623,State Bank of Missouri,Concordia,Missouri,64020,101 Nw 2nd St,NM,0,1,01/01/1934,,139136,127363,38.9900940139732,-93.5695060126342,http://www.gostatebank.com
10628,Preferred Bank,Rothville,Missouri,64676,205 Main St,NM,0,1,01/01/1934,,131010,121894,39.6535476286747,-93.0585637657929,mypfbank.com
10634,Pinnacle Bank,Lincoln,Nebraska,68508,1401 N St,NM,0,1,01/01/1934,,8566872,7539673,40.812228988303,-96.7008780020759,www.pinnbank.com
10635,The Bank of Steinauer,Steinauer,Nebraska,68441,215 Main St,NM,0,1,01/01/1934,,21970,19801,40.2073800005984,-96.2343199812967,www.bankofsteinauer.com
10637,First Central Bank,Cambridge,Nebraska,69022,623 Patterson St,NM,0,1,01/01/1934,,141809,118316,40.282882005108,-100.165771031829,http://www.firstcentral.com
10639,Flatwater Bank,Gothenburg,Nebraska,69138,900 Lake Ave,NM,0,1,01/01/1934,,333949,278244,40.928122001201,-100.162301007734,www.flatwater.bank
10641,Riverstone Bank,Eagle,Nebraska,68347,600 S 4th St,NM,0,1,01/01/1934,,537650,476945,40.8155470065845,-96.4302730357415,WWW.BANKRIVSERSTONE.COM
10643,Dundee Bank,Omaha,Nebraska,68132,5015 Underwood Ave,NM,0,1,01/01/1934,,841205,706161,41.2648049887572,-95.9912970084657,www.dundeebank.com
10647,American Exchange Bank,Elmwood,Nebraska,68349,151 N 4th St,SM,0,1,01/01/1934,,68152,53345,40.8426130101283,-96.2934419868018,www.aebank.com
10663,The Andover Bank,Andover,Ohio,44003,19 Public Sq,SM,0,1,01/01/1934,,586705,548925,41.6065579799966,-80.5723080134822,www.andover.bank
10667,Mabrey Bank,Bixby,Oklahoma,74008,14821 S Memorial Dr,SM,0,1,01/01/1934,,1853339,1574084,35.947723000286,-95.8855749740664,www.mabreybank.com
10672,The Exchange Bank,Skiatook,Oklahoma,74070,300 W Rogers Blvd,NM,0,1,01/01/1934,,154271,139065,36.3686773543919,-96.0056910762439,www.exb-ok.com
10674,Bank of Hydro,Hydro,Oklahoma,73048,146 W Main St,NM,0,1,01/01/1934,,165888,142996,35.5494133105702,-98.5777089908989,http://www.bankofhydro.com
10677,"Jonestown Bank and Trust Company, of Jonestown, Pennsylvania",Jonestown,Pennsylvania,17038,2 W Market St,NM,0,1,01/01/1934,,979414,826404,40.4133729824859,-76.4784419985853,www.jbt.bank
1068,Cass Commercial Bank,Des Peres,Missouri,63131,12412 Powerscourt Dr,SM,0,1,01/01/1934,,1322457,1106522,38.6071689886074,-90.4496700365328,www.cassbank.com
10685,Central Penn Bank & Trust,Mifflinburg,Pennsylvania,17844,250 E Chestnut St,NM,0,1,01/01/1934,,1243826,1105997,40.924196965491,-77.030500628534,www.mbtc.com
107,The Merchants & Planters Bank,Clarendon,Arkansas,72029,297 Madison St,NM,0,1,01/01/1934,,50459,46413,34.692617489348,-91.312024794199,
10704,Avana Bank,Abilene,Texas,79602,2118 S Treadaway Blvd,SM,0,1,01/01/1934,,37800,29165,32.4226049903885,-99.7366439922418,www.avana.bank
10709,Crossroads Bank,Yoakum,Texas,77995,406 W Grand Ave,NM,0,1,01/01/1934,,370921,339051,29.2898190157906,-97.1532810000485,www.crbanktx.com
10719,Peoples State Bank of Hallettsville,Hallettsville,Texas,77964,116 E 3rd St,NM,0,1,01/01/1934,,385546,351335,29.44421300173,-96.9425809927949,www.psbhallettsville.com
1073,Lindell Bank & Trust Company,St. Louis,Missouri,63139,6900 Clayton Ave,SM,0,1,01/01/1934,,937884,700606,38.63224575698,-90.304409894303,www.lindellbank.com
10741,Independence State Bank,Independence,Wisconsin,54747,23942 Senty Dr,NM,0,1,01/01/1934,,83891,72638,44.3664280113156,-91.592416178408,www.independencestatebank.com
10788,Illini State Bank,Oglesby,Illinois,61348,301 S Columbia Ave,SM,0,1,01/01/1934,,169824,125691,41.2929160060794,-89.0683960118649,http://www.illinistatebank.com
10791,Community Bank,Winslow,Illinois,61089,233 Carver St,NM,0,1,01/01/1934,,296576,198482,42.4929050134928,-89.7921850019098,www.cbcommunitybank.com
10799,First State Bank of Campbell Hill,Campbell Hill,Illinois,62916,114 W Front St,NM,0,1,01/01/1934,,158543,136315,37.9286721982365,-89.5496825543651,www.fsbch.com
10803,Dewey Bank,Dewey,Illinois,61840,2994 County Road 900 E,NM,0,1,01/01/1934,,31554,27707,40.3105789983229,-88.2890469898884,www.deweybank.com
10804,Du Quoin State Bank,Du Quoin,Illinois,62832,15 E Main St,SM,0,1,01/01/1934,,134369,123100,38.0111269922979,-89.2386990176694,www.duquoinstatebank.com
10809,First State Bank of Van Orin,Van Orin,Illinois,61374,27875 2600 E St,NM,0,1,01/01/1934,,43718,39244,41.551643865037,-89.3540164379804,http://vanorinbank.com
10816,Grand Rivers Community Bank,Grand Chain,Illinois,62941,260 S Main St,NM,0,1,01/01/1934,,17477,15548,37.2447890155539,-89.018873195415,www.grandriverscommunitybank.com
10820,State Bank of Industry,Industry,Illinois,61440,101 W Main St,NM,0,1,01/01/1934,,62018,53641,40.3273529886861,-90.6074389957858,www.statebankofindustry.com
10821,Clay County State Bank,Louisville,Illinois,62858,111 N Church St,NM,0,1,01/01/1934,,103486,91021,38.7722929840778,-88.5029740298646,www.claycobank.com
10829,"Petefish, Skiles & Co.",Virginia,Illinois,62691,102 W Beardstown St,NM,0,1,01/01/1934,,463899,404767,39.950276981085,-90.211872006865,https://www.petefishskiles.com
10831,"The First Trust and Savings Bank of Watseka, Illinois",Watseka,Illinois,60970,120 E Walnut St,SM,0,1,01/01/1934,,315968,265759,40.7765059875215,-87.7334109636645,www.ftsbank.com
10840,Campus State Bank,Campus,Illinois,60920,206 Center St,NM,0,1,01/01/1934,,25694,22516,41.0253190114281,-88.3076190242114,www.campustatebank.com
10843,Citizens Bank of Chatsworth,Chatsworth,Illinois,60921,502 E Locust St,NM,0,1,01/01/1934,,36946,32890,40.7540499888146,-88.2901389842341,www.bankatcbc.com
10844,Buena Vista National Bank,Chester,Illinois,62233,1309 Swanwick St,N,14479,1,01/01/1934,,311561,262954,37.9149780133343,-89.8211449802952,www.bvnb.com
10845,The Clay City Banking Co.,Clay City,Illinois,62824,331 S Main St,NM,0,1,01/01/1934,,233998,210756,38.6878469859659,-88.353731980712,www.claycitybanking.bank
10849,Tompkins State Bank,Avon,Illinois,61415,117 S Main St,NM,0,1,01/01/1934,,302376,273047,40.6610329917916,-90.435372018458,www.tompkinsstatebank.com
10853,West Central Bank,Ashland,Illinois,62612,400 E Buchanan St,NM,0,1,01/01/1934,,248431,204456,39.8920010029767,-90.0026189675567,www.westcentralbank.com
10855,State Bank of Bement,Bement,Illinois,61813,180 E Bodman St,NM,0,1,01/01/1934,,181425,160468,39.9226360208926,-88.5709840378589,www.bankbement.com
10858,Anderson State Bank,Oneida,Illinois,61467,111 W Highway St,NM,0,1,01/01/1934,,117486,99625,41.0751150180936,-90.2253940283439,www.andersonstatebank.com
1086,The Bank of Versailles,Versailles,Missouri,65084,113 E Newton St,SM,0,1,01/01/1934,,350241,260423,38.4316553877132,-92.8413485484447,bankov.com
10860,Murphy-Wall State Bank and Trust Company,Pinckneyville,Illinois,62274,105 E Water St,NM,0,1,01/01/1934,,202665,180452,38.080482253842,-89.380557196858,www.murphywall.com
10871,First State Bank of Beecher City,Beecher City,Illinois,62414,101 S Charles St,NM,0,1,01/01/1934,,107482,90265,39.1869459856241,-88.787238983804,www.fsbbc.com
10872,Chesterfield State Bank,Chesterfield,Illinois,62630,25 S Main St,NM,0,1,01/01/1934,,21727,19591,39.254316321917,-90.0637810162948,
10878,Waterman Bank,Waterman,Illinois,60556,248 W Lincoln Hwy,NM,0,1,01/01/1934,,165707,137488,41.769289989848,-88.776444014523,www.watermanbank.com
10883,Eagle Valley Bank,Griggsville,Illinois,62340,108 W Quincy St,NM,0,1,01/01/1934,,212253,186731,39.708730019493,-90.725789037871,www.eaglevalley.bank
10886,Legence Bank,Eldorado,Illinois,62930,1108 Us Highway 45 N,NM,0,1,01/01/1934,,647010,579743,37.8077370104416,-88.439870033618,www.legencebank.com
109,Horatio State Bank,Horatio,Arkansas,71842,123 W Main St,NM,0,1,01/01/1934,,302507,268546,33.9384694926378,-94.3594172837299,www.horatiostatebank.com
1090,Upper Peninsula State Bank,Escanaba,Michigan,49829,430 N Lincoln Rd,NM,0,1,01/01/1934,,356775,296711,45.7496444881924,-87.0796476089761,http://www.upstatebank.net
10903,Central State Bank,State Center,Iowa,50247,109 Main St W,NM,0,1,01/01/1934,,548104,458577,42.016781019986,-93.1642539860514,www.centralstatebankia.com
10906,The Baldwin State Bank,Baldwin City,Kansas,66006,721 High St,NM,0,1,01/01/1934,,107923,94949,38.7746420124428,-95.1885799948073,https://www.baldwinstatebank.com
10907,Guaranty State Bank and Trust Company,Beloit,Kansas,67420,201 S Mill St,NM,0,1,01/02/1934,,376797,307208,39.4580790118585,-98.1100119641563,www.guarantystate.com
10918,Grant County Bank,Ulysses,Kansas,67880,201 S Main St,NM,0,1,01/01/1934,,299597,244007,37.5793220184647,-101.358490037433,www.gcbks.bank
10919,The State Bank of Bern,Bern,Kansas,66408,402 Main St,NM,0,1,01/01/1934,,119042,98319,39.9630590062417,-95.9718069881069,Statebankofbern.com
1092,Baybank,Gladstone,Michigan,49837,104 S 10th St,NM,0,1,01/01/1934,,166209,143932,45.8461257752747,-87.0218354519442,http://baybank.us
10920,The Fidelity State Bank and Trust Company,Dodge City,Kansas,67801,510 N 2nd Ave,SM,0,1,01/01/1934,,211802,165112,37.7533960005983,-100.018882034355,www.fidelitybankdc.com
10928,The Miners State Bank,Iron River,Michigan,49935,312 W Genesee St,NM,0,1,01/01/1934,,144850,127694,46.0916279936636,-88.6416520311691,www.theminersstatebank.com
1095,Central Savings Bank,Sault Sainte Marie,Michigan,49783,511 Bingham Ave,SM,0,1,01/01/1934,,486115,442747,46.4963330172451,-84.3452820015816,www.centralsavingsbank.com
10956,Northview Bank,Sandstone,Minnesota,55072,510 Main St,NM,0,1,01/01/1934,,470436,389836,46.1331490083286,-92.8656760104306,http://www.northviewbank.com
10958,United Prairie Bank,Mountain Lake,Minnesota,56159,1141 3rd Ave,NM,0,1,01/01/1934,,931437,793029,43.9399620163906,-94.9274149792862,www.unitedprairiebank.com
10960,Janesville State Bank,Janesville,Minnesota,56048,201 N Main St,NM,0,1,01/01/1934,,91405,76155,44.1164340191132,-93.707239960184,http://www.janesvillestatebank.com
10962,Grand Rapids State Bank,Grand Rapids,Minnesota,55744,523 Nw 1st Ave,SM,0,1,01/01/1934,,250117,225153,47.2377919811931,-93.5303529694352,http://www.grsb.bank
10965,Lake Region Bank,New London,Minnesota,56273,51 Main St S,NM,0,1,01/01/1934,,145358,127633,45.3007230094172,-94.9436160246579,www.lakeregion.com
10967,"F & M Community Bank, National Association",Preston,Minnesota,55965,100 Saint Anthony St N,N,24356,1,01/01/1934,,204555,175915,43.6709919821802,-92.0816270038866,www.fmcommunity.com
10969,Randall State Bank,Randall,Minnesota,56475,307 Pacific Ave,NM,0,1,01/01/1934,,74847,68215,46.0910260053775,-94.5018319759992,www.randallstatebank.com
10971,Prime Security Bank,Karlstad,Minnesota,56732,201 Main St N,NM,0,1,01/01/1934,,145523,126809,48.5795309993343,-96.5235150030458,www.primesecurity.com
10973,Alliance Bank,Lake City,Minnesota,55041,105 E Lyon Ave,NM,0,1,01/01/1934,,760135,670954,44.4498300014296,-92.2667649724832,www.alliancebanks.com
10976,Center National Bank,Litchfield,Minnesota,55355,301 N Ramsey Ave,N,20448,1,01/01/1934,,236838,209841,45.1288489835005,-94.529974970282,www.centernationalbank.com
1098,Root River State Bank,Chatfield,Minnesota,55923,18 3rd St Se,SM,0,1,01/01/1934,,81779,75386,43.8450419920706,-92.1874880102405,www.rootriverstatebank.com
10980,ESB Bank,Caledonia,Minnesota,55921,115 N Highway 44/76,NM,0,1,01/01/1934,,189856,161380,43.6345477059486,-91.5050916106932,https://www.esbbanking.com
10982,Security State Bank of Oklee,Oklee,Minnesota,56742,201 Main St,NM,0,1,01/01/1934,,46375,38503,47.8402069899441,-95.8547040055761,www.ssboklee.com
10984,Security Bank Minnesota,Albert Lea,Minnesota,56007,437 Bridge Ave,NM,0,1,01/01/1934,,143888,119196,43.6538770159957,-93.3599730177596,http://www.securitybankmn.com
10988,Stearns Bank National Association,Saint Cloud,Minnesota,56301,4191 2nd St S,N,15576,1,01/01/1934,,3351145,2519478,45.5501469902462,-94.213314966398,www.stearnsbank.com
10989,Lake Central Bank,Annandale,Minnesota,55302,40 Chestnut St W,NM,0,1,01/01/1934,,287518,242177,45.263089018531,-94.125453007466,www.lakecentralbank.com
10991,First State Bank of Bigfork,Bigfork,Minnesota,56628,400 Main Avenue,NM,0,1,01/01/1934,,111092,95248,47.7465018104543,-93.6532867437868,www.fsbbigfork.com
10993,Bonanza Valley State Bank,Brooten,Minnesota,56316,147 Central Ave S,NM,0,1,01/01/1934,,72389,57069,45.5003579824699,-95.125007031078,www.bvsb.bank
10998,FM Bank,Waseca,Minnesota,56093,220 Elm Ave E,NM,0,1,01/01/1934,,699271,576625,44.077333991452,-93.50504096295,mybankfm.com
110,Bank OZK,Little Rock,Arkansas,72223,18000 Cantrell Rd,NM,0,1,01/01/1934,,41606548,33984924,34.8103564068723,-92.4703932518467,http://www.ozk.com
1100,Peoples State Bank of Plainview,Plainview,Minnesota,55964,100 4th Ave Se,SM,0,1,01/01/1934,,400086,358875,44.1618490145364,-92.1651830115193,www.peoplesstatebank.com
11002,St. Clair County State Bank,Osceola,Missouri,64776,680 2nd St,NM,0,1,01/01/1934,,214113,183773,38.0476609841211,-93.7035840254759,https://www.sccsbank.com
11003,Grand Missouri Bank,Bolivar,Missouri,65613,1630 Killingsworth Ave,NM,0,1,01/01/1934,,132311,107277,37.599435987696,-93.434371041802,www.grandmissouri.bank
11013,The First State Bank of Shelby,Shelby,Montana,59474,320 Main St,NM,0,1,01/01/1934,,165429,138198,48.5059059963124,-111.85894597874,www.fsbshelby.com
11035,Peapack Private Bank & Trust,Bedminster,New Jersey,07921,500 Hills Drive Suite 300,SM,0,1,01/01/1934,,7436366,6579164,40.6516327625952,-74.6414356948467,www.peapackprivate.com
1105,First Interstate Bank,Billings,Montana,59101,401 N 31st St,SM,0,1,01/01/1934,,27254238,22914426,45.7834120028575,-108.512015998602,www.firstinterstatebank.com
11063,First-Citizens Bank & Trust Company,Raleigh,North Carolina,27601,239 Fayetteville St,NM,0,1,01/01/1934,,233167000,163582000,35.7776569927939,-78.6387209681043,www.firstcitizens.com
11112,Somerset Trust Company,Somerset,Pennsylvania,15501,151 W Main St,NM,0,1,01/01/1934,,2495724,2061042,40.0081430003085,-79.0802790406534,somersettrust.com
11113,Hamlin Bank and Trust Company,Smethport,Pennsylvania,16749,333 W Main St,NM,0,1,01/01/1934,,458427,356876,41.8093059918887,-78.4451750286134,www.hamlinbank.com
11124,S&T Bank,Indiana,Pennsylvania,15701,800 Philadelphia St,NM,0,1,01/01/1934,,9812431,7968529,40.62262899737,-79.155058022195,http://www.stbank.com
11133,Farmers State Bank of Canton,Canton,South Dakota,57013,220 E 5th St,NM,0,1,01/01/1934,,84230,69332,43.3010949908295,-96.5905600025275,www.cantonfarmersstatebank.com
11159,Texas Champion Bank,Corpus Christi,Texas,78413,6124 S Staples St,NM,0,1,01/01/1934,,441926,332169,27.6901519893157,-97.3800620238204,http://www.texaschampionbank.com
1117,American Bank & Trust,Sioux Falls,South Dakota,57108,6810 S Minnesota Ave,NM,0,1,01/01/1934,,2020233,1753396,43.482802539823,-96.726930046793,www.abt.bank
11175,The First State Bank,Abernathy,Texas,79311,402 9th St,NM,0,1,01/01/1934,,122321,88053,33.8326460001211,-101.843412975708,www.fsbabernathy.net
11178,"Transpecos Banks, SSB",Pecos,Texas,79772,217 W 3rd St,SI,0,1,01/01/1934,,876494,801945,31.4251699957182,-103.497188037027,www.transpecos.bank
1118,"Citizens State Bank, of Arlington",Arlington,South Dakota,57212,128 S Main St,SM,0,1,01/01/1934,,141477,123689,44.3638009970839,-97.134863025106,www.csbarlington.com
11181,First State Bank of Brownsboro,Brownsboro,Texas,75756,14225 State Highway 31 E,NM,0,1,01/01/1934,,131625,123962,32.3029630036573,-95.6172570100134,www.fsbbrownsboro.com
1122,First Fidelity Bank,Burke,South Dakota,57523,745 Main St,NM,0,1,01/01/1934,,661825,597072,43.182698010086,-99.292689030661,www.ffb-sd.com
11225,First Community Bank,Milton,Wisconsin,53563,202 Merchant Row,NM,0,1,01/01/1934,,155943,139272,42.7812990186649,-88.9632499818519,www.fcbmilton.com
11228,First Citizens State Bank,Whitewater,Wisconsin,53190,207 W Main St,NM,0,1,01/01/1934,,491360,357867,42.834078018942,-88.7329799908833,www.firstcitizensww.com
11232,Bank of Milton,Milton,Wisconsin,53563,323 Parkview Dr,NM,0,1,01/01/1934,,223958,188528,42.7735820099588,-88.9393560257458,www.bankofmilton.com
11235,Bonduel State Bank,Bonduel,Wisconsin,54107,130 N Cecil St,NM,0,1,01/01/1934,,127522,109773,44.7410560002276,-88.4457549678375,www.bonduelbank.com
11236,Horicon Bank,Horicon,Wisconsin,53032,326 E Lake St,NM,0,1,01/01/1934,,1572219,1382756,43.451803998766,-88.631521998267,www.horiconbank.com
11241,Centennial Bank,Conway,Arkansas,72032,620 Chestnut St,SM,0,1,01/01/1934,,22542008,17701099,35.0883134786293,-92.4383480170106,http://www.my100bank.com
11242,Producers Bank & Trust,Mcgehee,Arkansas,71654,301 N 2nd St,SM,0,1,01/01/1934,,196166,135378,33.630078199147,-91.39817793453,www.mcgeheebank.com
11243,Bank of Salem,Salem,Arkansas,72576,207 Church St,SM,0,1,01/01/1934,,256008,223720,36.37113316164,-91.824179103179,www.bksalem.net
1125,Merchants State Bank,Freeman,South Dakota,57029,305 S Main St,SM,0,1,01/01/1934,,212534,169826,43.3522300065273,-97.4377539928247,www.msb-sd.com
11252,The First National Bank of Izard County,Calico Rock,Arkansas,72519,2005 Highway 56,N,21165,1,01/01/1934,,226942,155842,36.1401450380873,-92.124300174227,www.fnbizardcounty.com
11259,The Gunnison Bank and Trust Company,Gunnison,Colorado,81230,232 W Tomichi Ave,SM,0,1,01/01/1934,,255085,211151,38.544802013107,-106.929189975806,www.gunnisonbank.com
11261,McClave State Bank,Mcclave,Colorado,81057,101 E 1st St,NM,0,1,01/01/1934,,81763,67190,38.1377972940512,-102.851117135294,http://www.mcclavebank.com
11295,The Citizens Bank of Swainsboro,Swainsboro,Georgia,30401,121 N Main St,NM,0,1,01/01/1934,,408952,358154,32.5980807406172,-82.3346600221521,www.cbs-lc.com
11299,"Farmers State Bank of Alto Pass, Ill.",Alto Pass,Illinois,62905,55 N Elm St,NM,0,1,01/01/1934,,340429,307850,37.5701450079541,-89.3185239887417,http://www.myfsb.com
11302,First State Bank of St. Peter,Saint Peter,Illinois,62880,200 E 3rd St,SM,0,1,01/01/1934,,30881,25360,38.8678129850271,-88.8522230409329,www.fsbstpeter.com
11306,FNBC Bank & Trust,La Grange,Illinois,60525,620 W Burlington Ave,NM,0,1,01/01/1934,,573820,518096,41.8135930000868,-87.877854037973,www.fnbcbt.com
11307,Farmers State Bank,Pittsfield,Illinois,62363,108 E Adams St,NM,0,1,01/01/1934,,323894,270795,39.6080336455697,-90.8059017353789,www.farmersstate.com
11310,The Bank of Herrin,Herrin,Illinois,62948,101 S Park Ave,NM,0,1,01/01/1934,,350746,330122,37.8026240075951,-89.0279769660104,WWW.BANKOFHERRIN.BANK
11317,The Iuka State Bank,Salem,Illinois,62881,205 W Main St,SM,0,1,01/01/1934,,142411,101571,38.6268100089518,-88.9470099606305,www.iukabank.com
11319,Longview Community Bank,Mount Pulaski,Illinois,62548,130 S Washington St,NM,0,1,01/01/1934,,268701,219794,40.009254439323,-89.28529664623,www.longviewcb.com
11324,Farmers and Merchants State Bank of Bushnell,Bushnell,Illinois,61422,484 E Main St,NM,0,1,01/01/1934,,85076,76921,40.5522200048679,-90.508245961046,www.bushnellbank.com
11343,Ashton State Bank,Ashton,Iowa,51232,317 3rd St,NM,0,1,01/01/1934,,53834,44030,43.3114859942866,-95.7910469713579,http://www.ashtonstatebank.com
11347,Grinnell State Bank,Grinnell,Iowa,50112,814 4th Ave,NM,0,1,01/01/1934,,483009,320064,41.7428219931865,-92.7251280065277,www.grinnell.bank
11352,Sanborn Savings Bank,Sanborn,Iowa,51248,219 Main St,NM,0,1,01/01/1934,,90391,66159,43.1822109796024,-95.6561000066139,www.sanbornbank.com
11355,Bedford Loan & Deposit Bank,Bedford,Kentucky,40006,45 Highway 42 E,NM,0,1,01/01/1934,,118596,98446,38.593462984354,-85.3170360183888,www.bedfordbank.com
11358,"Cumberland Security Bank, Inc.",Somerset,Kentucky,42501,107 S Main St,NM,0,1,01/01/1934,,419485,358721,37.0905336333007,-84.60415672515,http://www.csbweb.com
11407,Highpoint Community Bank,Hastings,Michigan,49058,150 W Court St,NM,0,1,01/01/1934,,596092,540043,42.6474689844285,-85.288030023355,WWW.HIGHPOINTCOMMUNITYBANK.COM
11409,Valley Premier Bank,Hawley,Minnesota,56549,416 6th St,NM,0,1,01/01/1934,,150754,137934,46.8815439971544,-96.3166850043073,www.valleypremierbank.com
1141,The Colorado Bank and Trust Company of La Junta,La Junta,Colorado,81050,301 Colorado Ave,SM,0,1,01/01/1934,,266264,217883,37.9857709808209,-103.542343025814,wwww.colobank.com
11411,Rushford State Bank (Incorporated),Rushford,Minnesota,55971,219 S Mill St,NM,0,1,01/01/1934,,106670,99309,43.808571912259,-91.753478512053,www.rushfordstatebank.com
11415,Harvest Bank,Kimball,Minnesota,55353,75 N Main St,NM,0,1,01/01/1934,,232900,213319,45.3135520151414,-94.3007210336163,www.harvestbank.com
11417,Welcome State Bank,Welcome,Minnesota,56181,111 Guide St N,SM,0,1,01/01/1934,,43818,38338,43.6672347934828,-94.6147691504262,www.welcomestatebank.com
11431,Bank of Yazoo City,Yazoo City,Mississippi,39194,104 N Main St,NM,0,1,01/01/1934,,312575,276962,32.8472790181857,-90.4131400261136,http://www.bankofyazoo.com
11445,The Jefferson Bank,Greenville,Mississippi,38703,3008 E Reed Rd,NM,0,1,01/01/1934,,182542,147890,33.3862299860391,-91.0123190335055,www.thejeffersonbank.com
11446,Unity Bank of Mississippi,Holly Springs,Mississippi,38635,650 Highway 7 S,NM,0,1,01/01/1934,,292435,251252,34.7520943528316,-89.4530037418532,unityms.bank
11448,Century Bank,Lucedale,Mississippi,39452,4282 Main St,NM,0,1,01/01/1934,,550820,496322,30.9248033443754,-88.5954141281998,centurybank.net
11459,Mid America Bank,Jefferson City,Missouri,65101,1511 Friendship Rd,NM,0,1,01/01/1934,,1045693,896085,38.498043985338,-92.1784919650194,http://www.midambk.com
11462,Independent Farmers Bank,Maysville,Missouri,64469,201 W Main St,NM,0,1,01/01/1934,,146080,129885,39.889257983253,-94.3608870051619,www.farmbank.net
11463,The Citizens-Farmers Bank of Cole Camp,Cole Camp,Missouri,65325,121 E Main St,SM,0,1,01/01/1934,,199670,168704,38.4604700088782,-93.2028150154291,www.citizensfarmersbank.com
11465,Tri-County Trust Company,Glasgow,Missouri,65254,103 Commerce St,NM,0,1,01/01/1934,,60512,47995,39.2276070170233,-92.8464820388921,www.tricountytrust.com
11466,HomePride Bank,Mansfield,Missouri,65704,110 E Commercial St,NM,0,1,01/01/1934,,122045,107115,37.1064569927316,-92.5810450187796,www.homepridebank.com
1147,The Peoples Bank,Pratt,Kansas,67124,222 S Main St,SM,0,1,01/01/1934,,543535,502910,37.6441389823538,-98.7390950036883,www.tpb.bank
11475,Thayer County Bank,Hebron,Nebraska,68370,402 Lincoln Ave,NM,0,1,01/01/1934,,83878,64234,40.166898006651,-97.5901250064327,http://www.thayercountybank.com
11477,Auburn State Bank,Auburn,Nebraska,68305,1212 J St,SM,0,1,01/01/1934,,259826,227609,40.3921689886563,-95.8391210417445,www.auburnstatebank.com
11482,Homestead Bank,Cozad,Nebraska,69130,915 Meridian Ave,NM,0,1,01/01/1934,,514472,394828,40.8613179814356,-99.986313981929,www.homestead.bank
11491,The Citizens Bank of Clovis,Clovis,New Mexico,88101,421 Pile St,NM,0,1,01/01/1934,,499185,430588,34.402556994186,-103.203674994038,www.cbcnm.bank
11492,InBank,Raton,New Mexico,87740,200 S 2nd St,NM,0,1,01/01/1934,,1438894,1182780,36.9009349899837,-104.440212996882,www.inbank.com
11501,First National Bank of Scotia,Scotia,New York,12302,201 Mohawk Ave,N,14680,1,01/01/1934,,722402,634755,42.8267120024314,-73.9655781881723,http://www.firstscotia.com
11507,The Fidelity Bank,Fuquay Varina,North Carolina,27526,100 S Main St,NM,0,1,01/01/1934,,4482150,4058557,35.583955107994,-78.80004242938,www.fidelitybanknc.com
11519,Security First Bank of North Dakota,New Salem,North Dakota,58563,700 Ash Ave,NM,0,1,01/01/1934,,278953,235172,46.8468820195863,-101.416750970025,www.securityfirstbank.bank
11521,Chickasaw Community Bank,Oklahoma City,Oklahoma,73142,7500 W Memorial Road,SM,0,1,01/01/1934,,447749,393031,35.6091127144328,-97.6521004451867,www.ccb.bank
11522,Liberty National Bank,Lawton,Oklahoma,73501,629 Sw C Ave,N,23516,1,01/01/1934,,1192880,1056024,34.6055640068862,-98.3981090404084,www.WeAreLiberty.bank
11526,Cowboy Bank,Kremlin,Oklahoma,73753,102 6th St,SM,0,1,01/01/1934,,351067,300482,36.5500838408335,-97.8292716343633,www.cowboy.bank
11527,"The First State Bank of Pond Creek, Oklahoma",Pond Creek,Oklahoma,73766,136 W Broadway St,NM,0,1,01/01/1934,,55965,47222,36.6697410199185,-97.8009459645492,http://www.fsbpondcreek.com
11539,Enterprise Bank of South Carolina,Ehrhardt,South Carolina,29081,13497 Broxton Bridge Rd,NM,0,1,01/01/1934,,489476,466686,33.0962380129361,-81.0135220089059,https://ebsc.bank
11557,First State Bank of Burnet,Burnet,Texas,78611,136 E Washington St,NM,0,1,01/01/1934,,315809,281228,30.7577860172641,-98.2268090072213,http://https://www.fsbburnet.com
11559,First State Bank and Trust Company,Carthage,Texas,75633,110 W Panola St,NM,0,1,01/01/1934,,531511,456219,32.157606008536,-94.3389499719902,www.fsbcarthage.com
11569,Alliance Bank,Sulphur Springs,Texas,75482,100 Jefferson St W,NM,0,1,01/01/1934,,1337206,1156580,33.1383071491179,-95.6013135386163,www.alliancebank.com
11570,Global One Bank,Houston,Texas,77055,1400 Blalock Rd,NM,0,1,01/01/1934,,294042,239506,29.794399989673,-95.522260961832,www.globalonebank.com
11578,Burke & Herbert Bank & Trust Company,Alexandria,Virginia,22314,100 S Fairfax St,SM,0,1,01/01/1934,,7871274,6419810,38.804318895007,-77.04244819332,www.burkeandherbertbank.com
11580,The Bank of Southside Virginia,Carson,Virginia,23830,17208 Halligan Park Rd,NM,0,1,01/01/1934,,649766,489044,37.0356970080341,-77.3954549792201,www.bsvnet.com
11582,Lee Bank and Trust Company,Pennington Gap,Virginia,24277,41371 W Morgan Ave,NM,0,1,01/01/1934,,261691,221088,36.7554280007051,-83.0331780403076,www.leebank24.com
11595,Community First Bank,Boscobel,Wisconsin,53805,925 Wisconsin Ave,SM,0,1,01/01/1934,,629228,535947,43.1350049810181,-90.7054220189831,www.cfbank.com
11601,Laona State Bank,Laona,Wisconsin,54541,5308 Beech St,NM,0,1,01/01/1934,,296028,273230,45.5647519955247,-88.6722629930229,WWW.LAONASTATEBANK.COM
11608,BLC Community Bank,Little Chute,Wisconsin,54140,206 E Main St,NM,0,1,01/01/1934,,464589,377383,44.2805269985835,-88.3136639689625,www.blccb.com
11623,Bank Cmg,Madison,Wisconsin,53717,8020 Excelsior Dr,NM,0,1,01/01/1934,,829676,715649,43.077134016472,-89.524112040887,www.bankcmg.com
1163,Wahoo State Bank,Wahoo,Nebraska,68066,164 E 5th St,SM,0,1,01/01/1934,,115425,90062,41.2103439919699,-96.6189350078902,www.wahoostatebank.com
1164,The Citizens Bank,Farmington,New Mexico,87401,500 W Broadway,NM,0,1,01/01/1934,,782541,682558,36.7283660204748,-108.211197037348,www.cbnm.com
1165,The First Bank of Okarche,Okarche,Oklahoma,73762,203 W Oklahoma,NM,0,1,01/01/1934,,139630,117584,35.725616857282,-97.975561040442,http://www.firstbankokarche.com
11666,D. L. Evans Bank,Burley,Idaho,83318,375 N Overland Ave,NM,0,1,01/01/1934,,3491524,2982879,42.559504011906,-113.792556996361,dlevans.com
11667,Vermilion Valley Bank,Piper City,Illinois,60959,4 E Peoria St,NM,0,1,01/01/1934,,185723,151335,40.7579819815038,-88.1900759917638,www.vermilionvalleybank.com
11669,First State Bank of Forrest,Forrest,Illinois,61741,133 E Krack St,NM,0,1,01/01/1934,,324927,269438,40.7497740028192,-88.4094230217903,http://wwwfsbforrest.com
1167,Uinta Bank,Mountain View,Wyoming,82939,695 Parkway Dr,SM,0,1,01/01/1934,,209421,194586,41.2757859943787,-110.334490020915,www.uintabank.com
11670,Central Bank Illinois,Geneseo,Illinois,61254,101 N State St,NM,0,1,01/01/1934,,1410715,1035177,41.4533559845078,-90.156073006874,central-bank.com
11674,Warren-Boynton State Bank,New Berlin,Illinois,62670,702 W Illinois St,NM,0,1,01/01/1934,,251376,215665,39.7251685964908,-89.9212603679934,www.wbsb.com
11680,Farmers State Bank of Western Illinois,Alpha,Illinois,61413,124 W D St,SM,0,1,01/01/1934,,163788,140797,41.1915434029775,-90.3805015246995,http://www.fsbwil.com
11681,Anchor State Bank,Anchor,Illinois,61720,246 2nd St,NM,0,1,01/01/1934,,64831,56840,40.5684259955624,-88.5374239871918,anchorstatebank.com
11682,Anna State Bank,Anna,Illinois,62906,100 E Vienna St,NM,0,1,01/01/1934,,108571,94161,37.4604499933591,-89.2463429780893,https://www.annastate.com
11686,State Bank of Cherry,Cherry,Illinois,61317,110 S Main St,NM,0,1,01/01/1934,,137905,107535,41.426894345844,-89.2129203730734,www.statebankofcherry.com
1169,Sundance State Bank,Sundance,Wyoming,82729,123 N 2nd St,SM,0,1,01/01/1934,,273489,234025,44.4047419840492,-104.381310010506,www.sundancestate.bank
11699,Goodfield State Bank,Goodfield,Illinois,61742,201 S Eureka St,NM,0,1,01/01/1934,,244247,213099,40.6270620183214,-89.2739320123912,www.goodfieldstatebank.com
11702,Shelby County State Bank,Shelbyville,Illinois,62565,130 S Morgan St,SM,0,1,01/01/1934,,359971,320730,39.4061260062298,-88.7924869772012,www.scs-bank.com
11706,1st Community Bank,Sherrard,Illinois,61281,407 3rd St,NM,0,1,01/01/1934,,64853,57716,41.319293981101,-90.5069109753272,http://www.1stcommunitybanks.com
11708,Teutopolis State Bank,Teutopolis,Illinois,62467,106 E Main St,SM,0,1,01/01/1934,,348101,300470,39.1329350132183,-88.4730389846829,www.teutopolisstatebank.com
11711,Bank of Rantoul,Rantoul,Illinois,61866,201 E Champaign Ave,NM,0,1,01/01/1934,,254922,204757,40.3084919882512,-88.1570610162602,https://www.bankofrantoul.bank
11715,Bank of Yates City,Yates City,Illinois,61572,107 E Main St,NM,0,1,01/01/1934,,88875,80423,40.7788799939579,-90.0139809725871,http://www.bankofyatescity.com
11716,Hartsburg State Bank,Hartsburg,Illinois,62643,101 N 2nd St,SM,0,1,01/01/1934,,16515,14939,40.2499189974041,-89.4411890345817,
11719,Liberty Bank,Liberty,Illinois,62347,1002 N Main St,NM,0,1,01/01/1934,,187829,161536,39.889926984855,-91.111642993573,www.liberty.bank
11722,"The Peoples State Bank of Newton, Illinois",Newton,Illinois,62448,104 W Washington St,NM,0,1,01/01/1934,,702058,580020,38.9898200785047,-88.161292695949,www.psbnewton.com
11729,CIBM Bank,Champaign,Illinois,61821,2913 W Kirby Ave,NM,0,1,01/01/1934,,828504,702474,40.0979570206711,-88.2947999929519,www.cibmbank.com
11731,Fairview State Banking Company,Fairview,Illinois,61432,420 Carter St,NM,0,1,01/01/1934,,40561,34665,40.6334347318367,-90.1633075000357,http://www.fairviewstate.com
11732,Bank of Farmington,Farmington,Illinois,61531,16 N Main St,NM,0,1,01/01/1934,,236394,209830,40.6985290165518,-90.0059989700122,http://www.bankoffarmington.com
11734,Flanagan State Bank,Flanagan,Illinois,61740,301 W Falcon Hwy,NM,0,1,01/01/1934,,310145,276269,40.8703289883539,-88.8645799778703,www.flanaganstatebank.com
11739,BankOrion,Orion,Illinois,61273,1114 4th St,NM,0,1,01/01/1934,,684714,576505,41.3532230031459,-90.3818359646862,http://WWW.BANKORION.COM
11741,Solutions Bank,Forreston,Illinois,61030,200 E Main St,NM,0,1,01/01/1934,,479480,381790,42.126406208356,-89.5783926743244,www.solutions.bank
11746,Iroquois Farmers State Bank,Iroquois,Illinois,60945,111 W Lincoln Ave,NM,0,1,01/01/1934,,171820,153995,40.8273767304589,-87.5818602812826,www.iroqbank.com
11747,The Farmers State Bank and Trust Company,Jacksonville,Illinois,62650,200 W State St,NM,0,1,01/01/1934,,212042,182598,39.734480986248,-90.2302429593309,http://www.fsbtco.com
11750,Bank of Kampsville,Kampsville,Illinois,62053,244 N Broadway,NM,0,1,01/01/1934,,124990,102313,39.2996560957769,-90.6110403960058,www.thebankofkampsville.com
11759,Citizens State Bank,Wyoming,Iowa,52362,114 W Main St,NM,0,1,01/01/1934,,123933,98438,42.0591289932184,-91.0061399783036,http://www.csbwyoming.com
11763,VISIONBANK OF IOWA,Ames,Iowa,50010,104 Chestnut St,SM,0,1,01/01/1934,,899954,748599,42.0110270110942,-93.6107980337044,www.visionbank.com
11764,Sibley State Bank,Sibley,Iowa,51249,803 4th Ave,NM,0,1,01/01/1934,,105001,90997,43.4001340080985,-95.7492999805833,http://www.sibleystatebank.com
11767,FreedomBank,Elkader,Iowa,52043,210 S Main St,NM,0,1,01/01/1934,,435942,369163,42.8527370155103,-91.4036329609359,www.freedombnk.com
11771,Availa Bank,Carroll,Iowa,51401,126 W 6th St,NM,0,1,01/01/1934,,1683148,1396376,42.0662660161342,-94.8679169616047,www.availa.bank
11777,Commercial Bank,Parsons,Kansas,67357,1901 Main St,NM,0,1,01/01/1934,,361772,331345,37.3408209985778,-95.2645499609711,commercialbank.net
11778,"Citizens State Bank and Trust Co., Ellsworth, Kansas",Ellsworth,Kansas,67439,203 N Douglas Ave,SM,0,1,01/01/1934,,263723,194638,38.7295770033866,-98.230422026585,WWW.CSBANC.COM
11782,Bank of Abbeville & Trust Company,Abbeville,Louisiana,70510,123 Concord St,NM,0,1,01/01/1934,,236738,206486,29.9739798936159,-92.1358892739509,www.bankofabbeville.com
11785,Caldwell Bank & Trust Company,Columbia,Louisiana,71418,202 Main St,NM,0,1,01/01/1934,,289870,249747,32.1058939826237,-92.0752000119887,caldwellbankandtrust.com
11788,Bank of Sunset and Trust Company,Sunset,Louisiana,70584,863 Napoleon Ave,NM,0,1,01/01/1934,,190459,168850,30.4119059864487,-92.0644969921859,www.bankofsunset.com
11792,Franklin State Bank & Trust Company,Winnsboro,Louisiana,71295,802 Prairie St,NM,0,1,01/01/1934,,223282,196899,32.164563994,-91.7197580317593,www.fsbnet.com
11807,United Bank of Michigan,Grand Rapids,Michigan,49546,900 East Paris Ave Se,NM,0,1,01/02/1934,,1068603,885436,42.9471459951937,-85.5700330369035,http://www.unitedbank4u.com
11810,Huron Community Bank,East Tawas,Michigan,48730,301 Newman St,SM,0,1,01/01/1934,,336996,303459,44.28181459022,-83.4911244805313,www.bankhcb.com
11813,Cadence Bank,Tupelo,Mississippi,38804,201 S Spring St,SM,0,1,01/01/1934,,53282352,43921456,34.254837643939,-88.70430038667,www.cadencebank.com
11817,Richton Bank & Trust Company,Richton,Mississippi,39476,114 South Front Street,SM,0,1,01/01/1934,,50628,41879,31.3487343012738,-88.9358158276977,www.richtonbank.com
11821,Little Horn State Bank,Hardin,Montana,59034,835 N Center Ave,NM,0,1,01/01/1934,,379369,318141,45.7375539819419,-107.605374030585,www.littlehornstatebank.com
11823,Manhattan Bank,Manhattan,Montana,59741,124 S Broadway St,NM,0,1,01/01/1934,,268696,234146,45.8558679818436,-111.334238001767,www.manhattanbank.bank
1184,"The Bank and Trust, S.S.B.",Del Rio,Texas,78840,1200 Veterans Blvd,SM,0,1,01/01/1934,,583613,531326,29.3754049946439,-100.902831005353,www.thebankandtrust.com
11860,The Killbuck Savings Bank Company,Killbuck,Ohio,44637,165 N Main St,SM,0,1,01/01/1934,,885140,753656,40.4956670107765,-81.9845140268954,http://www.killbuckbank.com
11862,The Bank of Beaver City,Beaver,Oklahoma,73932,130 Douglas Ave,NM,0,1,01/01/1934,,174183,156444,36.8165510179552,-100.519286012519,www.bankofbeaver.bank
11868,The Fidelity Deposit and Discount Bank,Dunmore,Pennsylvania,18512,101 N Blakely St,NM,0,1,01/01/1934,,2736654,2467356,41.4219482966026,-75.6304178278344,http://www.bankatfidelity.com
11891,The Donley County State Bank,Clarendon,Texas,79226,201 South Kearney St,NM,0,1,01/01/1934,,49075,38905,34.9380024648481,-100.888201418482,donleybank.com
11904,"First State Bank of Ben Wheeler, Texas",Ben Wheeler,Texas,75754,14269 State Highway 64,NM,0,1,01/01/1934,,181467,153200,32.4511939857394,-95.7078190314154,www.fsbbenwheeler.com
11905,Citizens State Bank,Corrigan,Texas,75939,300 N Home St,NM,0,1,01/01/1934,,187444,166540,30.9989070105361,-94.8267950093498,www.csbanktx.com
11907,Security State Bank,Farwell,Texas,79325,100 5th St,NM,0,1,01/01/1934,,331075,284651,34.3884660091197,-103.038081025257,www.ssbfarwell.com
11916,The Buckholts State Bank,Buckholts,Texas,76518,100 N 4th St,NM,0,1,01/01/1934,,132323,109354,30.8749229884124,-97.127071040276,www.buckholtsbank.com
11922,First State Bank of Texas,Orange,Texas,77630,4039 I-10 East,NM,0,1,01/01/1934,,357205,318524,30.1195219858175,-93.7841859989726,www.fsboftx.com
11932,First Security State Bank,Cranfills Gap,Texas,76637,307 N 3rd St,NM,0,1,01/01/1934,,188557,167250,31.7748829870368,-97.8261360143433,www.fssbtexas.com
11934,Dominion Bank,Dallas,Texas,75252,17304 Preston Rd,NM,0,1,01/01/1934,,636520,563596,32.98590593179,-96.801353300363,www.dominionbanking.com
11935,First Texas Bank,Georgetown,Texas,78626,900 S Austin Ave,NM,0,1,01/01/1934,,1352088,1203302,30.63534556452,-97.678486191518,www.firsttexasbank.bank
11952,"The Poca Valley Bank, Inc.",Walton,West Virginia,25286,7033 Charleston Rd,NM,0,1,01/01/1934,,637786,587583,38.6389150989923,-81.4020637109457,www.pocavalleybank.com
11953,The Grant County Bank,Petersburg,West Virginia,26847,3 N Main St,NM,0,1,01/01/1934,,379657,327540,38.9930809889888,-79.124581003154,http://www.grantcountybank.com
11971,Bar Harbor Bank & Trust,Bar Harbor,Maine,04609,82 Main St,NM,0,1,01/01/1934,,4710816,3960015,44.389526482853,-68.204309143221,www.barharbor.bank
1198,Arrowhead Bank,Llano,Texas,78643,108 W Sandstone St,NM,0,1,01/01/1934,,286273,253335,30.7490239947797,-98.6767820076443,http://www.arrowheadbanktexas.com
12010,Provident Bank,Jersey City,New Jersey,07302,239 Washington St,SI,0,1,01/01/1934,,24840140,19152748,40.7157829966,-74.037915018405,http://www.provident.Bank
12013,Union County Savings Bank,Elizabeth,New Jersey,07208,320 N Broad St,SI,0,1,01/01/1934,,1504289,1359466,40.670244996748,-74.2159970170893,www.unioncountysavings.com
12079,Citizens Community Bank,Hahira,Georgia,31632,120 W Main St,NM,0,1,01/01/1934,,206871,187429,30.9912941064125,-83.3733383211764,www.ccbga.bank
12086,Sainte Marie State Bank,Sainte Marie,Illinois,62459,103 North Main Street,NM,0,1,01/01/1934,,17651,13931,38.9329589805254,-88.0236669667175,
12087,Spring Valley City Bank,Spring Valley,Illinois,61362,315 N Cornelia St,NM,0,1,01/01/1934,,204765,173952,41.327123013943,-89.1941720010686,www.svcb.com
1209,"Commercial Bank of Texas, National Association",Nacogdoches,Texas,75961,215 E Main St,N,14371,1,01/01/1934,,1641934,1473818,31.6036870151775,-94.6547489867801,www.cbtx.com
12098,The First State Bank of Dongola,Dongola,Illinois,62926,108 Ne Front St,SM,0,1,01/01/1934,,32247,28850,37.3596640355585,-89.1675163508528,
12107,Farmers State Bank,Elmwood,Illinois,61529,104 E Main St,NM,0,1,01/01/1934,,68720,60814,40.7777600040556,-89.96577103155,www.fsbelmwood.com
12113,Germantown Trust & Savings Bank,Breese,Illinois,62230,205 N Germantown Rd,NM,0,1,01/01/1934,,501936,413050,38.6093240178234,-89.5358150217383,www.gtsb.com
12121,Buckley State Bank,Buckley,Illinois,60918,102 S Railroad Ave,NM,0,1,01/01/1934,,49246,42986,40.5982751688962,-88.0375027605724,www.buckleystatebank.com
12128,Citizens Savings Bank,Spillville,Iowa,52168,101 Church St,NM,0,1,01/01/1934,,141921,116905,43.2054539971079,-91.9512709751498,www.bankingwithcsb.com
1213,"Cornerstone Capital Bank, SSB",Houston,Texas,77027,1177 West Loop S,SI,0,1,01/01/1934,,2262057,1394685,29.7571752033,-95.454668624073,www.cornerstonecapital.com
12135,The Lyndon State Bank,Lyndon,Kansas,66451,817 Topeka Ave,NM,0,1,01/01/1934,,103957,78645,38.611641991237,-95.6840630414356,http://www.lyndonstatebank.com
12136,The Wilson State Bank,Wilson,Kansas,67490,422 26th St,NM,0,1,01/01/1934,,121984,104527,38.8254086414616,-98.4726550042174,www.wilsonstatebank.net
12139,Ford County State Bank,Spearville,Kansas,67876,322 N Main St,NM,0,1,01/01/1934,,60719,48285,37.8497339914784,-99.7562159876135,http://fordcountystatebank.com
12149,First State Bank,Irvington,Kentucky,40146,240 N 1st St,NM,0,1,01/01/1934,,352161,301108,37.8818514727483,-86.2840714543815,www.firststatebankky.com
12162,Elkton Bank & Trust Company,Elkton,Kentucky,42220,30 Public Sq,NM,0,1,01/01/1934,,194140,164557,36.809132734888,-87.1539937779652,elktonbankandtrust.com
12163,The Farmers Bank of Milton,Milton,Kentucky,40045,41 Ferry St,NM,0,1,01/01/1934,,309106,253967,38.7239651101219,-85.3693030808508,fbmilton.com
12166,West Point Bank,Radcliff,Kentucky,40160,600 W Lincoln Trail Blvd,NM,0,1,01/01/1934,,541990,460546,37.8361200205219,-85.9479339914154,www.westpointbank.com
1218,First State Bank,Spearman,Texas,79081,1 Ne Court St,NM,0,1,01/01/1934,,185278,162025,36.1982199904501,-101.192037007395,www.fsbtx.com
1219,Wellington State Bank,Wellington,Texas,79095,1000 8th St,SM,0,1,01/01/1934,,633865,575160,34.856463998955,-100.212771967152,www.wellingtonsb.bank
12201,The Cleveland State Bank,Cleveland,Mississippi,38732,110 Commerce Ave,NM,0,1,01/01/1934,,330695,304037,33.7460440088743,-90.7197180254011,www.clevelandstatebank.com
12203,Merchants & Marine Bank,Pascagoula,Mississippi,39567,3118 Pascagoula St,NM,0,1,01/01/1934,,947474,637256,30.365236010573,-88.55555496577,WWW.MANDMBANK.COM
12204,"The Citizens Bank of Philadelphia, Mississippi",Philadelphia,Mississippi,39350,521 W Main St,NM,0,1,01/01/1934,,1593139,1182778,32.7702809536489,-89.1271049281816,www.thecitizensbankphila.com
12207,Bank of Winona,Winona,Mississippi,38967,312 N Applegate St,SM,0,1,01/01/1934,,138832,115509,33.488946982421,-89.735835981432,www.bankofwinona.com
12208,Belgrade State Bank,Belgrade,Missouri,63622,14185 Highway C,SM,0,1,01/01/1934,,519637,471494,37.7864649974678,-90.8494599959112,belgradestatebank.com
12214,United State Bank,Lewistown,Missouri,63452,102 W Main St,NM,0,1,01/01/1934,,288929,259153,40.0860902746297,-91.8137063137461,http://www.usb1.com
12219,"First State Bank of St. Charles, Missouri",St. Charles,Missouri,63301,206 N 5th St,NM,0,1,01/01/1934,,551613,407111,38.783909002684,-90.485196984599,www.fsbfinancial.com
12220,County Bank,Brunswick,Missouri,65236,116 W Broadway St,NM,0,1,01/01/1934,,127560,116816,39.4230699815895,-93.1313019586407,countybankonline.com
12223,The Callaway Bank,Fulton,Missouri,65251,5 E 5th St,SM,0,1,01/01/1934,,507715,411073,38.8474327514748,-91.9478700662333,www.callawaybank.com
12225,FMB Bank,Wright City,Missouri,63390,100 Veterans Memorial Pkwy,NM,0,1,01/01/1934,,42750,39179,38.8286049984529,-91.0201240102854,www.fmb-bank.com
12226,Peoples Bank Co.,Altenburg,Missouri,63732,8537 Main St,SM,0,1,01/01/1934,,128587,106623,37.6299039961909,-89.5901730049356,peoplesoa.com
12229,First Bank,St. Louis,Missouri,63141,11901 Olive Boulevard,SM,0,1,01/01/1934,,6569414,5902232,38.6719450069,-90.445325025565,WWW.FIRST.BANK
12230,Peoples Bank,Cuba,Missouri,65453,408 W Washington St,NM,0,1,01/01/1934,,240688,219786,38.06171798057,-91.405927004016,www.peoplesbk.com
12232,Bank of Monticello,Monticello,Missouri,63457,201 E Lafayette St,NM,0,1,01/01/1934,,150344,132589,40.1187953519453,-91.7134424602508,www.bankofmonticello.com
12241,Washington County Bank,Blair,Nebraska,68008,1523 Washington St,NM,0,1,01/01/1934,,624013,527624,41.5434170195569,-96.1349700373295,www.washingtoncountybank.com
12244,First State Bank,Farnam,Nebraska,69029,222 Main St,NM,0,1,01/01/1934,,193270,109068,40.705539011725,-100.214983029391,www.1ststatebank4me.com
12246,Commercial Bank,Nelson,Nebraska,68961,401 S Main St,NM,0,1,01/01/1934,,57887,50169,40.2013589861809,-98.0670080231815,www.gotocb.net
12248,First Nebraska Bank,Valley,Nebraska,68064,330 N Spruce St,SM,0,1,01/01/1934,,348848,308225,41.3146149932009,-96.3448640407738,www.firstnebraska.bank
1225,Farmers and Merchants Bank of Long Beach,Long Beach,California,90802,302 Pine Ave,SM,0,1,01/01/1934,,11621496,8872341,33.770751009588,-118.192102973439,www.fmb.com
12258,Southwest Capital Bank,Albuquerque,New Mexico,87104,1410 Central Ave Sw,NM,0,1,01/01/1934,,489512,443770,35.0887599797401,-106.663704005379,www.southwestcapital.com
12259,Lea County State Bank,Hobbs,New Mexico,88240,1017 N Turner St,SM,0,1,01/01/1934,,722251,657842,32.7108179883616,-103.137159982294,www.onlinelcsb.com
12266,Mechanics & Farmers Bank,Durham,North Carolina,27701,116 W Parrish St,NM,0,1,01/01/1934,,490954,417936,35.9961110148561,-78.9007870382167,www.mfbonline.com
12283,First State Bank,Anadarko,Oklahoma,73005,102 W Main St,SM,0,1,01/01/1934,,130455,121204,35.0760021416447,-98.2437895912456,www.fsbanadarko.bank
12284,Farmers & Merchants Bank,Duke,Oklahoma,73532,101 East Second Street,NM,0,1,01/01/1934,,19173,16716,34.6614873158919,-99.5702703343118,http://www.fmbok.com
12285,Cattlemens Bank,Altus,Oklahoma,73521,3421 N Main St,NM,0,1,01/01/1934,,556275,436939,34.6743650150832,-99.3348420408251,www.cattlemensbank.com
12298,The Cowboy Bank of Texas,Maypearl,Texas,76064,100 S Main St,NM,0,1,01/01/1934,,108107,88046,32.30758355596,-97.0142919411339,www.cowboybank.com
12299,"SouthStar Bank, S.S.B.",Moulton,Texas,77975,100 S Main St,SI,0,1,01/01/1934,,1291007,1050467,29.5743500113368,-97.1459569768729,www.southstarbank.com
12303,Citizens State Bank,Woodville,Texas,75979,102 W Bluff St,SM,0,1,01/01/1934,,447976,392223,30.775495637569,-94.415435089923,www.citizensbank.net
12305,Columbus State Bank,Columbus,Texas,78934,1102 Milam St,NM,0,1,01/01/1934,,301587,255525,29.706318676335,-96.540840396909,www.columbusstate.com
12315,The First State Bank,Columbus,Texas,78934,420 Walnut St,NM,0,1,01/01/1934,,145705,125773,29.7067580137899,-96.5402789770347,fsbcolumbus.com
12322,Chippewa Valley Bank,Hayward,Wisconsin,54843,15755 W County Road B,NM,0,1,01/01/1934,,718893,542013,46.0062770014658,-91.4804640000129,www.chippewavalleybank.com
12325,Bank of Cashton,Cashton,Wisconsin,54619,724 Front St,NM,0,1,01/01/1934,,139063,119794,43.7423551880733,-90.7794969052709,www.bankofcashton.bank
12327,Bank of Mauston,Mauston,Wisconsin,53948,503 Highway 82,NM,0,1,01/01/1934,,404026,347111,43.7926446130122,-90.0769558452214,www.bankofmauston.com
12331,State Bank of Chilton,Chilton,Wisconsin,53014,26 E Main St,NM,0,1,01/01/1934,,493534,416282,44.0292600048842,-88.1622280404727,www.statebankofchilton.com
12349,Community Bank of Cameron,Cameron,Wisconsin,54822,101 W Main St,NM,0,1,01/01/1934,,222199,194673,45.4088470038999,-91.7359729910903,www.communitybankwi.com
12354,Hustisford State Bank,Hustisford,Wisconsin,53034,200 S Lake St,NM,0,1,01/01/1934,,78543,53790,43.344709008627,-88.6003780311907,https://www.hustisfordstatebank.com
12365,The First National Bank of Allendale,Allendale,Illinois,62410,301 E Main St,N,8293,1,01/01/1934,,391193,340554,38.5269419795493,-87.7096640261401,www.fnba.bank
12368,Regions Bank,Birmingham,Alabama,35203,1900 5th Ave N,SM,0,1,01/01/1934,,158598000,131484000,33.5180950088045,-86.8091649873225,http://www.regions.com
1237,Ireland Bank,Malad City,Idaho,83252,33 Bannock St,NM,0,1,01/01/1934,,379223,332615,42.1859800034137,-112.2465019637,www.ireland-bank.bank
12372,Fowler State Bank,Fowler,Colorado,81039,201 Main St,NM,0,1,01/01/1934,,143219,116346,38.1305689868194,-104.023464016627,www.fowlerstate.bank
12383,Carrollton Bank,Carrollton,Illinois,62016,315 6th St,NM,0,1,01/01/1934,,3776064,3461167,39.3017029991847,-90.4096190400466,www.carrolltonbanking.com
12384,Jersey State Bank,Jerseyville,Illinois,62052,1000 S State St,NM,0,1,01/01/1934,,189612,166712,39.1092780135149,-90.3196490324659,www.jerseystatebank.com
12386,State Bank of Toulon,Toulon,Illinois,61483,102 W Main St,NM,0,1,01/01/1934,,321770,277878,41.0940073303272,-89.8645999095704,www.banksbt.bank
12388,Williamsville State Bank & Trust,Williamsville,Illinois,62693,512 W Main St,NM,0,1,01/01/1934,,97878,86774,39.9538700096094,-89.5553560040683,www.wsbt.net
12402,Exchange State Bank,Lanark,Illinois,61046,126 N Broad St,NM,0,1,01/01/1934,,111622,92340,42.1027399935307,-89.8332300082935,http://www.lanarkbank.com
12410,La Salle State Bank,La Salle,Illinois,61301,654 1st St,NM,0,1,01/01/1934,,186567,155683,41.3275740022434,-89.0961080086865,www.elsb.com
12417,Tri-Valley Bank,Randolph,Iowa,51649,104 S Main St,NM,0,1,01/01/1934,,83351,77668,40.8728050025519,-95.5664299873479,www.tri-valleycenters.com
12422,The Security State Bank,Wellington,Kansas,67152,101 N Washington Ave,NM,0,1,01/01/1934,,56731,49337,37.2660239959443,-97.3976480110537,www.ssbwellington.com
12425,The Dickinson County Bank,Enterprise,Kansas,67441,101 S Factory,NM,0,1,01/01/1934,,21057,17204,38.9049120009434,-97.1176770222921,www.dcbonline.net
12432,The Baxter State Bank,Baxter Springs,Kansas,66713,1401 Military Ave,NM,0,1,01/01/1934,,24945,18037,37.021277997187,-94.735744993545,www.baxterstatebank.com
12437,Renasant Bank,Tupelo,Mississippi,38804,209 Troy St,NM,0,1,01/01/1934,,26722596,21790684,34.256221244231,-88.70501796189,www.renasant.com
12441,Hancock Whitney Bank,Gulfport,Mississippi,39501,2510 14th St,NM,0,1,01/01/1934,,35747114,28930377,30.368600003593,-89.09357902086,www.hancockwhitney.com
12444,State Bank of Cold Spring,Cold Spring,Minnesota,56320,401 Main St,NM,0,1,01/01/1934,,81354,73851,45.4560019986033,-94.4292779706555,www.statebankcoldspring.com
12457,The Citizens Bank of Edina,Edina,Missouri,63537,117 S Main St,NM,0,1,01/01/1934,,99123,84225,40.1668860205295,-92.1724350341467,http://www.cbofe.com
12484,First Oklahoma Bank,Jenks,Oklahoma,74037,100 S Riverfront Dr,NM,0,1,01/01/1934,,1223338,1071519,36.0225969907002,-95.9608250185665,www.firstoklahomabank.com
12485,The Payne County Bank,Perkins,Oklahoma,74059,202 S Main St,SM,0,1,01/01/1934,,289088,233879,35.9726180070884,-97.0332959839298,www.paynecountybank.com
12493,Premier Bank National Association,Omaha,Nebraska,68118,16802 Burke St,N,25308,1,01/01/1934,,337702,287516,41.259922991162,-96.178550988519,www.premierbankne.com
12511,Alliance Bank,Mondovi,Wisconsin,54755,245 S Eau Claire St,NM,0,1,01/01/1934,,238065,191802,44.5659639940439,-91.6710269878018,www.alliancebank.us
12512,Community First Bank,Rosholt,Wisconsin,54473,275 W Grand Ave,NM,0,1,01/01/1934,,103764,85212,44.6274409790651,-89.3110849658545,www.cfbwi.bank
12513,Partners Bank of Wisconsin,Marshfield,Wisconsin,54449,907 N Central Ave,NM,0,1,01/01/1934,,298499,227811,44.6751490117401,-90.1671569841761,www.partnersbankwi.com
12514,Ixonia Bank,Ixonia,Wisconsin,53036,W 1046 Marietta  Ave,NM,0,1,01/01/1934,,914633,587530,43.1415530075978,-88.5845030418525,www.ixoniabank.com
12517,Bank Five Nine,Oconomowoc,Wisconsin,53066,155 W Wisconsin Ave,NM,0,1,01/01/1934,,2631041,2214638,43.111399991024,-88.5007669909395,WWW.BANKFIVENINE.COM
12531,The Peoples Bank,Magnolia,Arkansas,71753,500 N Jackson,NM,0,1,01/01/1934,,196932,136557,33.2714711703693,-93.2388152057486,www.pbmag.com
12549,Bank of Calhoun County,Hardin,Illinois,62047,204 W Main St,NM,0,1,01/01/1934,,97799,88218,39.1568373566179,-90.6180053877522,http://www.bankofcalhouncounty.com
12585,The Hopeton State Bank,Hopeton,Oklahoma,73746,19495 County Rd 440,NM,0,1,01/01/1934,,31381,25391,36.688113984041,-98.666586009165,hopetonbank.com
12591,The Converse County Bank,Douglas,Wyoming,82633,332 E Walnut St,NM,0,1,01/01/1934,,1025710,922010,42.7609573185149,-105.383648408372,www.conversecountybank.com
12592,Security State Bank,Basin,Wyoming,82410,201 S 4th St,SM,0,1,01/01/1934,,446534,399833,44.3798259805794,-108.038535028714,https://www.ssbwyo.bank
12594,The Pueblo Bank and Trust Company,Pueblo,Colorado,81003,301 W 5th St,NM,0,1,01/01/1934,,670858,562372,38.2713130015281,-104.610424975218,www.pbandt.bank
12602,Farmers and Drovers Bank,Council Grove,Kansas,66846,201 W Main St,NM,0,1,01/01/1934,,203101,135412,38.6606959899239,-96.4907420130869,www.farmersanddrovers.com
12608,City Bank & Trust Co.,Natchitoches,Louisiana,71457,146 Saint Denis St,NM,0,1,01/01/1934,,361462,312249,31.7619029813269,-93.087480027735,www.mycitybank.com
12609,Patterson State Bank,Patterson,Louisiana,70392,1130 Highway 90,NM,0,1,01/01/1934,,310051,276744,29.6909820147282,-91.3116640370859,www.pattersonstatebank.com
12611,The Evangeline Bank and Trust Company,Ville Platte,Louisiana,70586,497 W Main St,NM,0,1,01/01/1934,,1109100,888184,30.6902882230139,-92.2784959353283,www.therealbank.com
12614,Origin Bank,Choudrant,Louisiana,71227,3921 Elm St,SM,0,1,01/01/1934,,9688625,8426224,32.528422997579,-92.513746969641,www.origin.bank
12616,Legends Bank,Linn,Missouri,65051,200 E Main St,NM,0,1,01/01/1934,,593140,481994,38.4858980209035,-91.8522129728702,www.legendsbk.com
12627,Bank of Washington,Washington,Missouri,63090,200 W Main St,NM,0,1,01/01/1934,,1124749,913185,38.5602740005405,-91.0127729973815,http://www.bankofwashington.com
12633,The Central Trust Bank,Jefferson City,Missouri,65101,238 Madison St,SM,0,1,01/01/1934,,19187778,15164576,38.576398016222,-92.1711459812574,www.centralbank.net
1265,Cashmere Valley Bank,Cashmere,Washington,98815,117 Aplets Way,NM,0,1,01/01/1934,,2261084,1897326,47.5221799814711,-120.47057298034,www.cashmerevalleybank.com
12661,GreenLeaf Bank,Greenleaf,Wisconsin,54126,1608 Day St,NM,0,1,01/01/1934,,151329,129167,44.3131250163136,-88.0966590103212,http://www.greenleaf.bank
12694,Citizens Community Bank,Pilot Grove,Missouri,65276,100 Roe St,NM,0,1,01/01/1934,,137148,121063,38.8750394077653,-92.9123302231506,www.ccb-online.net
12706,State Bank,Waterloo,Illinois,62298,885 N Illinois Route 3,NM,0,1,01/01/1934,,304179,260798,38.355772997418,-90.154469967892,www.sbw.bank
12717,Bridge Community Bank,Mount Vernon,Iowa,52314,302 Highway 1 S,NM,0,1,01/01/1934,,144101,123096,41.9146319813629,-91.4237959643005,www.bridge.bank
12722,Sicily Island State Bank,Sicily Island,Louisiana,71368,301 Newman St,NM,0,1,01/01/1934,,90929,68503,31.8463030046999,-91.6575469596579,www.sibank.net
12745,Bank of Prague,Prague,Nebraska,68050,316 W Center Ave,NM,0,1,01/01/1934,,44010,38504,41.3104369916536,-96.8092870231761,www.bankofprague1.com
12757,First State Bank,Valliant,Oklahoma,74764,106 N Dalton St,NM,0,1,01/01/1934,,98907,87313,34.0034260200352,-95.0932250335315,www.fsbvalliant.com
12758,"Farmers State Bank, Allen, Oklahoma",Allen,Oklahoma,74825,201 E Broadway,NM,0,1,01/01/1934,,55759,47484,34.8793101095812,-96.4156700557313,http://www.fsballen.com
12761,F&M Bank,Edmond,Oklahoma,73012,17100 N May Ave,NM,0,1,01/01/1934,,757980,622924,35.646153020508,-97.566474963709,http://www.fmbankok.com
12769,First United Bank,Dimmitt,Texas,79027,201 N Broadway St,NM,0,1,01/01/1934,,2400376,2123556,34.5523610080371,-102.312808019255,www.firstunited.bank
12788,Baraboo State Bank,Baraboo,Wisconsin,53913,101 3rd Ave,SM,0,1,01/01/1934,,569847,493961,43.4696310076255,-89.7427740179667,http://www.baraboobank.com
1281,Washington Trust Bank,Spokane,Washington,99201,717 W Sprague Ave,NM,0,1,01/01/1934,,10628299,8872158,47.6570463542161,-117.423178775899,www.watrust.com
12814,Peoples State Bank,Prairie Du Chien,Wisconsin,53821,301 E Blackhawk Ave,NM,0,1,01/01/1934,,934635,778313,43.052108000523,-91.143466984454,http://www.peoplesfinancial.com
12815,"Home State Bank, National Association",Crystal Lake,Illinois,60014,40 Grant St,N,18763,1,01/01/1934,,759782,673514,42.2422190114121,-88.3202789669485,www.homestateonline.com
12828,"The Farmers Bank, Frankfort, Indiana",Frankfort,Indiana,46041,9 E Clinton St,NM,0,1,01/01/1934,,1116374,888317,40.2803549870291,-86.5116149683071,www.thefarmersbank.com
12836,First State Bank of Porter,Porter,Indiana,46304,230 Lincoln St,SM,0,1,01/01/1934,,161564,138445,41.6157129880114,-87.0724699865433,http://www.porterstatebank.com
12839,First Farmers Bank & Trust Co.,Converse,Indiana,46919,123 N Jefferson St,SM,0,1,01/01/1934,,3316095,2882670,40.579023990118,-85.873845008143,www.ffbt.com
12854,Centier Bank,Whiting,Indiana,46394,1500 119th St,NM,0,1,01/01/1934,,9917852,8070208,41.679094006158,-87.4927759950481,www.centier.com
12855,Farmers State Bank,Waterloo,Iowa,50701,131 Tower Park Dr,NM,0,1,01/01/1934,,1572293,1253271,42.4558580072857,-92.3588110098424,www.fsb1879.com
12857,Denver Savings Bank,Denver,Iowa,50622,121 S State St,NM,0,1,01/01/1934,,258303,196103,42.6725879975933,-92.3369429597337,www.bankdsb.com
12858,Farmers Trust and Savings Bank,Spencer,Iowa,51301,125 W 4th St,NM,0,1,01/01/1934,,616150,553419,43.1415100084345,-95.1471569645904,www.farmerstrust.bank
12865,Swedish-American State Bank,Courtland,Kansas,66939,324 Liberty St,NM,0,1,01/01/1934,,54368,39872,39.783347984675,-97.8947449931385,www.mysasb.com
12869,Farmers Bank and Trust Company,Marion,Kentucky,42064,201 S Main St,NM,0,1,01/01/1934,,734767,631222,37.3321479919051,-88.0816600136839,www.farmers247.com
12874,Katahdin Trust Company,Patten,Maine,04765,11 Main St,NM,0,1,01/01/1934,,1089094,937888,45.99609797634,-68.4471040444668,www.katahdintrust.com
12885,The Peoples Bank,Chestertown,Maryland,21620,100 Spring Ave,NM,0,1,01/01/1934,,293238,252016,39.209928535488,-76.067384498225,www.pbkc.com
12893,First State Bank of Michigan,Decatur,Michigan,49045,124 S Phelps St,SM,0,1,01/02/1934,,65298,49274,42.107810458219,-85.974273367773,www.fsbdecatur.com
12899,Mayville State Bank,Mayville,Michigan,48744,37 E Ohmer Rd,NM,0,1,01/01/1934,,94146,84745,43.340063677479,-83.3518620914358,www.mayvillestatebank.com
1291,Farmers Bank & Trust Company,Magnolia,Arkansas,71753,200 E Main St,SM,0,1,01/01/1934,,3008576,2672998,33.267299832435,-93.239077559318,www.myfarmers.bank
1294,FNBC Bank,Ash Flat,Arkansas,72513,636 Ash Flat Dr,SM,0,1,01/01/1934,,832991,708991,36.225881653943,-91.607242381017,www.fnbc.us
12944,Orange Bank & Trust Company,Middletown,New York,10940,212 Dolson Ave,SM,0,1,01/01/1934,,2627638,2292611,41.4261679404537,-74.4292268503593,www.orangebanktrust.com
12956,Bank of Richmondville,Cobleskill,New York,12043,857 E Main St,NM,0,1,01/01/1934,,190898,172026,42.680925392863,-74.470794887501,www.bankrich.com
12959,Cattaraugus County Bank,Little Valley,New York,14755,116 Main St,NM,0,1,01/01/1934,,366959,322938,42.249800987658,-78.7984199443825,www.countonccb.com
1296,Farmers Bank,Greenwood,Arkansas,72936,71 W Center St,NM,0,1,01/01/1934,,282050,242455,35.2121257107761,-94.2576454273694,www.gofarmersbank.com
12969,The Union Bank Company,Columbus Grove,Ohio,45830,101 Progressive Dr,NM,0,1,01/01/1934,,1195768,1069246,40.9258399861519,-84.0592359770365,www.theubank.com
12978,The Richwood Banking Company,Richwood,Ohio,43344,28 N Franklin St,SM,0,1,01/01/1934,,1241743,1072502,40.4273840041959,-83.2965139687511,www.richwoodbank.com
12980,The Corn City State Bank,Deshler,Ohio,43516,201 W Main St,SM,0,1,01/01/1934,,101966,85184,41.2074299814214,-83.9034660178718,www.corncitystatebank.com
12982,Civista Bank,Sandusky,Ohio,44870,100 E Water St,SM,0,1,01/01/1934,,4105295,3240343,41.457529753194,-82.710837369184,www.civistabank.com
12985,Elderton State Bank,Elderton,Pennsylvania,15736,143 N Main St,NM,0,1,01/01/1934,,426130,335438,40.6953353206577,-79.3425367120903,www.eldertonbank.com
1299,Evolve Bank & Trust,West Memphis,Arkansas,72301,301 Shoppingway Blvd,SM,0,1,01/01/1934,,1355975,1069348,35.1660918794414,-90.1910281415056,www.getevolved.com
13000,Trinity Capital Bank of Texas,Ennis,Texas,75119,815 W Ennis Ave,NM,0,1,01/01/1934,,428714,366719,32.323365016991,-96.635230349673,www.ennisstatebank.com
13006,The Pecos County State Bank,Fort Stockton,Texas,79735,500 N Main St,NM,0,1,01/01/1934,,294844,267109,30.8893720064728,-102.87887800619,WWW.PCSBANK.NET
13012,First Community Bank,Bluefield,Virginia,24605,29 College Dr,SM,0,1,01/01/1934,,3178684,2660898,37.2413587494176,-81.2526030835643,www.firstcommunitybank.com
13018,Miners & Merchants Bank,Thomas,West Virginia,26292,16000 Appalachian Highway,NM,0,1,01/01/1934,,66929,57737,39.1424186440554,-79.4984052394341,https://www.minersandmerchantsbank.com
13020,First Exchange Bank,White Hall,West Virginia,26554,1 Heritage Way,NM,0,1,01/01/1934,,376612,340873,39.4825611000001,-80.1511278999999,www.firstexchangebank.com
13025,Farmers Savings Bank,Mineral Point,Wisconsin,53565,305 Doty St,NM,0,1,01/01/1934,,421992,369351,42.8621070193416,-90.1822750038385,WWW.FARMERSSAVINGS.COM
13030,Oakwood Bank,Pigeon Falls,Wisconsin,54760,40214 S Ekern Avenue,NM,0,1,01/01/1934,,145385,113887,44.4254780162244,-91.210366977011,www.oakwoodbank.net
13032,Citizens First Bank,Viroqua,Wisconsin,54665,101 S Main St,NM,0,1,01/01/1934,,332894,272774,43.5560970024933,-90.8889199844044,http://www.citizensfirstbank.net
13033,The Farmers State Bank of Waupaca,Waupaca,Wisconsin,54981,112 W Fulton St,SM,0,1,09/17/1935,,265437,230474,44.3582279953911,-89.0857939930101,www.fsbwaupaca.com
13054,"Park Bank, National Association",Holmen,Wisconsin,54636,1200 S Main St,N,25291,1,01/01/1934,,79070,66447,43.954810013042,-91.259804028673,www.parkbank.bank
13055,Citizens Bank,Mukwonago,Wisconsin,53149,301 N Rochester St,NM,0,1,01/01/1934,,1147067,968516,42.8652060184932,-88.3338770122891,www.citizensbankwi.bank
13058,Hiawatha National Bank,Hager City,Wisconsin,54014,N1555 770th St,N,15698,1,01/01/1934,,778809,620039,44.596373999769,-92.5182730297177,www.hnbank.com
13063,Kennebunk Savings Bank,Kennebunk,Maine,04043,104 Main St,SI,0,1,01/01/1934,,1968109,1692945,43.3873893662297,-70.5384411898155,www.kennebunksavings.com
13068,Community Bank and Trust,Neosho,Missouri,64850,100 S Wood St,SM,0,1,01/01/1934,,437520,379861,36.8695080079462,-94.3689440257703,www.cbthomebank.com
13071,Town & Country Bank,Salem,Missouri,65560,1009 E. Scenic Rivers Blvd.,SM,0,1,01/01/1934,,739077,635412,37.6348250115452,-91.5241669917126,www.tcbanks.com
13083,First Western Bank,Booneville,Arkansas,72927,80 W Main St,SM,0,1,01/01/1934,,721108,643838,35.1399662416149,-93.9228976117088,http://www.fwbank.com
131,Seacoast National Bank,Stuart,Florida,34994,815 S Colorado Ave,N,14838,1,01/01/1934,,16666792,13096897,27.191632011529,-80.251628970844,www.seacoastbank.com
13102,Lake City Bank,Warsaw,Indiana,46580,202 E Center St,SM,0,1,01/01/1934,,6894415,6028270,41.2378349999142,-85.8551159807737,www.lakecitybank.com
13107,"Citizens State Bank of New Castle, Indiana",New Castle,Indiana,47362,1238 Broad St,NM,0,1,01/01/1934,,850951,731675,39.9314920045117,-85.3705190147136,www.mycsbin.com
13109,Jackson County Bank,Seymour,Indiana,47274,125 S Chestnut St,NM,0,1,01/01/1934,,1043646,815661,38.957385019845,-85.8893340108401,jcbank.com
13111,Hendricks County Bank and Trust Company,Brownsburg,Indiana,46112,1 E Main St,SM,0,1,01/01/1934,,234515,214873,39.843064979577,-86.397671963273,www.hendrickscountybank.com
13112,Owen County State Bank,Spencer,Indiana,47460,201 W Morgan St,NM,0,1,01/01/1934,,384931,306677,39.2873499958251,-86.7651859795513,www.ocsbank.com
13113,Peoples Trust and Savings Bank,Boonville,Indiana,47601,132 S 3rd St,NM,0,1,01/01/1934,,246535,198757,38.0491789886957,-87.2739570249216,www.peoplestrust.bank
13130,The Friendship State Bank,Friendship,Indiana,47021,5908 E Main Street,SM,0,1,01/01/1934,,549885,472765,38.9697849978552,-85.1485789591207,www.friendshipstatebank.com
13167,Bank of Clarkson,Clarkson,Kentucky,42726,101 E Main St,NM,0,1,01/01/1934,,172715,143148,37.4953646842084,-86.2225752839385,WWW.BANKOFCLARKSON.COM
13179,First Community Bank,Harbor Springs,Michigan,49740,200 E Main St,SM,0,1,01/01/1934,,417705,371875,45.4294799805756,-84.9874589987972,www.firstcb.com
13195,Union State Bank of Hazen,Hazen,North Dakota,58545,209 Central Ave N,NM,0,1,01/01/1934,,240891,221621,47.2952804938305,-101.623291189618,www.betterstate.com
13196,Peoples State Bank,Westhope,North Dakota,58793,110 Main St,NM,0,1,01/01/1934,,71464,59595,48.9095230069522,-101.020546034454,
13198,Cornerstone Bank,Fargo,North Dakota,58104,2280 45th St S,NM,0,1,01/01/1934,,1751016,1562131,46.8446505055039,-96.8608465403602,www.cornerstone.bank
13209,The Fort Jennings State Bank,Fort Jennings,Ohio,45844,120 N Water St,NM,0,1,01/01/1934,,269195,233359,40.9035030104702,-84.2981410046565,www.fjsb.com
13216,The Savings Bank,Circleville,Ohio,43113,118 N Court St,NM,0,1,01/01/1934,,519280,439437,39.6023440126341,-82.9445509812536,www.thesavingsbankohio.bank
13220,The Peoples Bank Co.,Coldwater,Ohio,45828,112 W Main St,NM,0,1,01/01/1934,,840463,744198,40.480050980337,-84.6292450393686,www.pbc.bank
13242,Farmers & Merchants State Bank,Waterloo,Wisconsin,53594,210 W Madison St,NM,0,1,01/01/1934,,239291,177640,43.183505983643,-88.9920699824542,www.FandMStBk.com
13249,The State Savings Bank of Manistique,Manistique,Michigan,49854,101 S Cedar St,SM,0,1,01/01/1934,,169427,140600,45.957801441537,-86.2464294381473,www.statesavingsbank.com
13251,Chambers State Bank,Chambers,Nebraska,68725,104 E Main St,NM,0,1,01/01/1934,,83369,61618,42.2050259924517,-98.7482190405709,"www,chambersbank.com"
13255,Midwest Bank,Pierce,Nebraska,68767,114 W Main St,SM,0,1,01/01/1934,,1247976,1021231,42.1988279941486,-97.5281809817665,www.midwest.bank
13264,Bank of Luxemburg,Luxemburg,Wisconsin,54217,630 Main St,NM,0,1,01/01/1934,,720749,628445,44.5398370151128,-87.7027880156891,www.bankofluxemburg.com
13274,Bank of Commerce,Chelsea,Oklahoma,74016,322 W 6th St,SM,0,1,01/01/1934,,179851,151605,36.5359724179468,-95.4330108139334,www.bankboc.com
13297,Solvay Bank,Solvay,New York,13209,1537 Milton Ave,SM,0,1,01/01/1934,,1272722,1144474,43.0602841698845,-76.2026627157827,www.solvaybank.com
13303,Bank of England,England,Arkansas,72046,123 S Main St,NM,0,1,01/01/1934,,338576,257132,34.5450628430327,-91.8737936913379,www.bankofengland-ar.com
13305,The New Washington State Bank,New Washington,Indiana,47162,402 E Main St,NM,0,1,01/01/1934,,637293,579980,38.5629210055633,-85.5377549983271,www.newwashbank.com
1331,Farmers & Merchants Bank of Central California,Lodi,California,95240,121 W Pine St,NM,0,1,01/01/1934,,5631419,4911000,38.1342972696629,-121.2741661531,www.fmbonline.com
13339,The State Bank and Trust Company,Defiance,Ohio,43512,401 Clinton St,SM,0,1,01/01/1934,,1487552,1268013,41.285293880517,-84.362561546435,www.yourstatebank.com
13341,The Croghan Colonial Bank,Fremont,Ohio,43420,323 Croghan St,SM,0,1,01/01/1934,,1244068,976638,41.346337982149,-83.1144649829317,https://www.croghan.com
13366,Exchange Bank and Trust Company,Perry,Oklahoma,73077,523 Delaware St,SM,0,1,01/01/1934,,414874,372870,36.287308326666,-97.2842826724729,www.easybanking.net
13381,Northeast Missouri State Bank,Kirksville,Missouri,63501,600 S Baltimore St,NM,0,1,01/02/1934,,154016,137779,40.190554000526,-92.5724320265336,www.northeastmissouristatebank.com
13382,Farmers and Merchants State Bank of Springfield,Springfield,Minnesota,56087,101 N Marshall Ave,NM,0,1,01/01/1934,,135714,115957,44.2402030035109,-94.9756499822138,https://www.fmb-ebank.com
13397,Bank of Utica,Utica,New York,13502,222 Genesee St,NM,0,1,01/01/1934,,1432168,1048029,43.1008172515318,-75.2329626843487,http://www.bankofutica.com
13407,Farmers State Bank,Center,Texas,75935,115 Shelbyville St,NM,0,1,01/01/1934,,369048,311653,31.795978016125,-94.1810230138623,www.fsbctx.bank
13415,Farmers and Merchants Bank,Arnett,Oklahoma,73832,225 E Renfrow Ave,NM,0,1,01/01/1934,,78105,67914,36.1348088406106,-99.770821663936,fmbankarnett.com
13416,Oklahoma State Bank,Buffalo,Oklahoma,73834,122 South Hoy St,NM,0,1,01/02/1934,,63185,55816,36.8351206578996,-99.6303915559298,www.osbbuffalo.com
13421,Union Bank and Trust Company,Lincoln,Nebraska,68506,3643 S 48th St,NM,0,1,01/01/1934,,8881740,7410323,40.7762450169661,-96.6544249917634,www.ubt.com
13430,Wadena State Bank,Wadena,Minnesota,56482,304 1st St Se,SM,0,1,01/03/1934,,208476,189979,46.438462010789,-95.1366759814027,www.wadenastatebank.com
13450,Integrity Bank,Fowler,Kansas,67844,401 N Main St,NM,0,1,01/01/1934,,86128,76049,37.380677330753,-100.195582045002,www.integrityks.bank
13454,Royal Bank,Elroy,Wisconsin,53929,202 Main St,NM,0,1,01/01/1934,,775758,685951,43.7386460107465,-90.2700160119077,http://www.royalbank-usa.com
13551,The State Exchange Bank,Lamont,Oklahoma,74643,1280 Main St,NM,0,1,01/01/1934,,93596,83044,36.690450020456,-97.556425983811,www.stateexchangebank.com
13561,Fleetwood Bank,Fleetwood,Pennsylvania,19522,2 W Main St,SM,0,1,01/04/1934,,392265,359676,40.4536059919994,-75.8183409719813,https://fleetwoodbank.com
13565,Bank of Sun Prairie,Sun Prairie,Wisconsin,53590,228 E Main St,NM,0,1,01/06/1934,,728560,604241,43.1833189833831,-89.2117630174438,http://www.bankofsunprairie.com
13582,State Bank of Nauvoo,Nauvoo,Illinois,62354,1205 Mulholland St,NM,0,1,01/08/1934,,38472,35200,40.5500720164506,-91.3831969589848,www.statebankofnauvoo.com
13599,First Lockhart Bank,Lockhart,Texas,78644,111 S Main St,NM,0,1,01/09/1934,,386137,347065,29.8842819872705,-97.6726429991762,http://www.firstlockhart.com
13600,POINTWEST BANK,West,Texas,76691,200 W Oak St,NM,0,1,01/09/1934,,134659,119937,31.8030100137941,-97.0929659982645,http://www.pointwestbank.com
13611,Bank of Mead,Mead,Nebraska,68041,322 S Vine St,NM,0,1,01/13/1934,,37867,33841,41.2269300181544,-96.4888269996684,WWW.BANKOFMEAD.COM
13616,Corydon State Bank,Corydon,Iowa,50060,201 W Jackson St,NM,0,1,01/13/1934,,130402,99143,40.7587039986433,-93.3190900335643,
13622,Dayspring Bank,Gothenburg,Nebraska,69138,914 Lake Ave,NM,0,1,01/01/1934,,1145528,913139,40.9282170100735,-100.162099003867,dayspring.bank
13632,First State Bank,Russellville,Arkansas,72802,3103 E Main St,SM,0,1,01/12/1934,,606458,534724,35.2781809332213,-93.0931455237293,www.fsbmybank.com
1365,Peoples Bank and Trust Company,Mcpherson,Kansas,67460,101 S Main St,NM,0,1,01/01/1934,,1570875,1311994,38.3690829986562,-97.6664780255717,http://www.peoples.bank
13652,Pine Country Bank,Little Falls,Minnesota,56345,1201 1st Ave Ne,NM,0,1,01/01/1934,,388921,343102,45.976169917721,-94.343200602729,http://www.pinecountrybank.com
13656,United Community Bank,Milford,Iowa,51351,1000 Okoboji Ave,NM,0,1,11/01/1934,,284602,233196,43.3251310201944,-95.1495940029386,www.unitedcommunitybank.com
13662,"Farmers and Merchants State Bank, Bloomfield, Nebraska",Bloomfield,Nebraska,68718,103 N Broadway St,NM,0,1,01/17/1934,,207731,181499,42.5991689798418,-97.6459319692319,www.fandmstatebank.com
13692,Brunswick State Bank,Brunswick,Nebraska,68720,226 2nd St,NM,0,1,01/18/1934,,167836,150729,42.3377909801611,-97.9702289765562,www.brunswickstatebank.com
13696,Nebraska State Bank,Bristow,Nebraska,68719,301 Prairie St,NM,0,1,01/19/1934,,23036,19159,42.8418800201462,-98.5851940412937,
13703,Greenville National Bank,Greenville,Ohio,45331,446 S Broadway St,N,13944,1,01/17/1934,,617204,517734,40.1007160079203,-84.6319089758358,www.bankgnb.bank
13712,The Libertyville Savings Bank,Fairfield,Iowa,52556,2000 W Jefferson Ave,NM,0,1,01/15/1934,,386698,305604,41.0033109835364,-91.9849480371852,www.lsbia.bank
13715,The State Bank,Spirit Lake,Iowa,51360,1902 Hill Ave,NM,0,1,01/20/1934,,89151,81564,43.421444996922,-95.1032139990028,www.statebankspiritlake.com
13716,The Middlefield Banking Company,Middlefield,Ohio,44062,15985 E High St,NM,0,1,01/20/1934,,1977387,1625265,41.461542002606,-81.0715879784299,www.middlefieldbank.bank
13729,Prescott State Bank,Prescott,Kansas,66767,283 E Main St,NM,0,1,01/01/1934,,16991,14041,38.0653040102056,-94.6937690091756,HTTPS://ONLINEBANKING.PRESCOTTSTATEBANK.COM
1373,BOM Bank,Natchitoches,Louisiana,71457,814 Washington St,NM,0,1,01/01/1934,,1419930,1225719,31.7639920030553,-93.086336987599,www.bofm.com
13735,Savings Bank,Primghar,Iowa,51245,185 S Green Ave,NM,0,1,01/29/1934,,298504,249345,43.0866059861549,-95.6287320030987,www.savingsbankia.com
13736,Maynard Savings Bank,Maynard,Iowa,50655,310 Main St W,NM,0,1,01/13/1934,,109767,90222,42.774010995763,-91.880423022378,www.maynardsavingsbank.com
13737,Farmers & Merchants Bank & Trust,Burlington,Iowa,52601,221 Jefferson St,NM,0,1,01/24/1934,,213038,184947,40.8096469849393,-91.1023529950075,www.fmbanktrust.bank
1374,The Bank of Commerce,White Castle,Louisiana,70788,32460 Bowie St,NM,0,1,01/01/1934,,77238,68837,30.1708610170385,-91.1467680293819,http://WWW.BKOFCOMMERCE.COM
13748,The Upstate National Bank,Ogdensburg,New York,13669,729 Proctor Ave,N,12018,1,01/24/1934,,276994,184595,44.7146389655371,-75.4520772003811,www.upstatebank.com
13753,Blue Grass Savings Bank,Blue Grass,Iowa,52726,104 E Mayne St,NM,0,1,01/01/1934,,225577,185232,41.509497008058,-90.7651369603188,www.bluegrassbank.com
1376,Citizens Bank & Trust Company,Plaquemine,Louisiana,70764,57910 Main St,NM,0,1,01/01/1934,,465657,377244,30.2912790003658,-91.2363129906526,www.citizensbankandtrust.com
13774,Benton County State Bank,Blairstown,Iowa,52209,212 Locust St Ne,NM,0,1,01/29/1934,,50210,37578,41.9084499924949,-92.0840939656292,http://www.bentoncountystatebank.com
13775,Farmers State Bank,Mountain City,Tennessee,37683,100 W Main St,NM,0,1,01/27/1934,,233506,208926,36.4747610206133,-81.8042770409045,www.fsbankmctn.com
13784,"Northern Interstate Bank, N. A.",Norway,Michigan,49870,501 W Us Highway 2,N,6863,1,01/29/1934,,191944,174755,45.7897770105814,-87.9195189699156,www.banknib.com
13788,"Concordia Bank of Concordia, Missouri",Concordia,Missouri,64020,547 S Main St,NM,0,1,01/01/1934,,127809,112873,38.983223996583,-93.5679339866936,www.concordia-bank.com
13794,McIntosh County Bank,Ashley,North Dakota,58413,204 W Main St,NM,0,1,01/01/1934,,117395,99806,46.034615000726,-99.3751920197975,www.makeitmcb.com
13798,First National Bank in Fredonia,Fredonia,Kansas,66736,730 Madison St,N,14370,1,01/31/1934,,99229,87110,37.53350200948,-95.825332978659,www.fnbfredonia.com
1380,Feliciana Bank & Trust Company,Clinton,Louisiana,70722,10926 Plank Rd,NM,0,1,01/01/1934,,171437,141975,30.8614890188265,-91.0146669722231,www.felicianabank.com
13801,Farmers and Merchants Bank,Laotto,Indiana,46763,6464 Merchants Dr,NM,0,1,01/31/1934,,299562,275363,41.2940189807182,-85.1897859876928,www.fmfbank.com
13802,The Twin Valley Bank,West Alexandria,Ohio,45381,2 E Dayton St,SM,0,1,02/05/1934,,142368,128689,39.7442839991973,-84.5320570396874,www.twinvalleybank.bank
13809,Minnstar Bank National Association,Lake Crystal,Minnesota,56055,202 N Main St,N,13972,1,01/29/1934,,188674,164510,44.1080470029768,-94.2181960000741,www.minnstarbank.com
13813,First National Bank in Pinckneyville,Pinckneyville,Illinois,62274,210 S Main St,N,13975,1,01/30/1934,,139511,120582,38.078024009279,-89.3817149891433,www.fnbpville.com
13816,Bank 1st,West Union,Iowa,52175,115 N Vine St,SM,0,1,01/31/1934,,159349,129121,42.9619159982362,-91.8085740189108,www.bank1stia.com
13819,Commercial State Bank,Wausa,Nebraska,68786,519 E Broadway St,NM,0,1,01/01/1934,,248556,223242,42.4994770123155,-97.5380579650114,wausabank.com
13821,Cross Bank,Wynne,Arkansas,72396,399 Merriman Ave E,NM,0,1,02/01/1934,,572172,508587,35.2238060185797,-90.7900160415052,http://www.mycrossbank.com
13832,The Trust Bank,Lenox,Georgia,31637,50 W Central Ave,NM,0,1,02/05/1934,,45212,37835,31.2720219796859,-83.4649240055424,www.thetrustbank.net
13838,Field & Main Bank,Henderson,Kentucky,42420,140 N Main St,SM,0,1,02/05/1934,,811924,732616,37.8403269815446,-87.5913389621262,www.fieldandmain.com
13843,Kentland Bank,Kentland,Indiana,47951,111 N 4th St,NM,0,1,02/06/1934,,408927,317259,40.7687489971373,-87.443013977,www.kentlandbank.com
13868,First State Bank Nebraska,Lincoln,Nebraska,68516,2701 Grainger Pkwy,SM,0,1,02/10/1934,,1073521,925162,40.729880687189,-96.681930207034,http://www.1fsb.bank
13876,CNB Bank,Clearfield,Pennsylvania,16830,1 S 2nd St,NM,0,1,02/09/1934,,8231937,7019170,41.021879581279,-78.438320224377,www.cnbbank.bank
13883,The Farmers State Bank,Mcpherson,Kansas,67460,2074 E Kansas Ave,NM,0,1,02/12/1934,,164367,147119,38.3699050119007,-97.6319089614003,www.fsb-online.com
13887,Farmers and Merchants Bank,Lafayette,Alabama,36862,2 1st St Ne,NM,0,1,02/13/1934,,297222,268600,32.899823061087,-85.4002946867825,www.fmlafayette.com
13892,Sandhills State Bank,North Platte,Nebraska,69101,203 S Dewey St,NM,0,1,02/14/1934,,370344,335719,41.1321959882659,-100.762490034458,www.sandhillsstate.com
13897,Farmers State Bank,Cameron,Missouri,64429,124 E 3rd St,NM,0,1,02/14/1934,,376676,328205,39.7410389872925,-94.2374619721609,WWW.FSCBANK.BANK
13902,Farmers State Bank of Medora,Medora,Illinois,62063,106 E Washington St,NM,0,1,02/17/1934,,22353,19915,39.175943082825,-90.1410714318616,
13905,First Texoma National Bank,Durant,Oklahoma,74701,220 W Main St,N,14005,1,01/01/1934,,221777,196082,33.9914670139511,-96.3781469857218,www.ftnb.net
1391,Arlington State Bank,Arlington,Minnesota,55307,230 W Main St,NM,0,1,01/01/1934,,53618,49757,44.6069660012643,-94.0796960303931,www.arlingtonstatebank.com
13919,"SouthTrust Bank, N.A.",George West,Texas,78022,601 Guadalupe St,N,14012,1,02/20/1934,,612053,539563,28.3335659878019,-98.114765006171,www.southtrust.com
13926,"The State Bank of Canton, Canton, Kansas",Canton,Kansas,67428,103 S Main St,NM,0,1,02/21/1934,,36026,27987,38.3855380156942,-97.4268809880255,www.statebankofcanton.com
13931,State Bank of Schaller,Schaller,Iowa,51053,100 W 2nd St,NM,0,1,02/24/1934,,38259,32843,42.4998710036743,-95.2938629851182,www.statebankofschaller.com
13946,First Bank & Trust Company,Perry,Oklahoma,73077,401 N 7th St,NM,0,1,02/21/1934,,241177,216383,36.287491995044,-97.288671032194,www.fbt.bank
13947,Alamosa State Bank,Alamosa,Colorado,81101,2225 Main St,NM,0,1,02/23/1934,,343989,303562,37.4742829834457,-105.891311041029,www.alamosastatebank.com
13951,Community Bank of Louisiana,Mansfield,Louisiana,71052,118 Jefferson St,NM,0,1,01/01/1934,,820532,772092,32.0366769805721,-93.709452028251,www.communitybankofla.bank
13953,Iowa State Bank,Hull,Iowa,51239,1101 Main St,SM,0,1,02/20/1934,,1250228,870167,43.1888610139437,-96.1341229621946,www.iowastate.bank
13955,Foundation Bank,Mc Kenzie,Tennessee,38201,676 Main St N,NM,0,1,02/28/1934,,210638,177634,36.1318240017313,-88.5169930143827,http://www.foundationbank.org
13959,CBW Bank,Weir,Kansas,66781,109 E Main St,NM,0,1,02/28/1934,,64677,40192,37.3102420136846,-94.7711899665981,www.cbwbank.com
13960,The Bank of Houston,Houston,Missouri,65483,404 S Grand Ave,NM,0,1,03/03/1934,,66156,49421,37.3242889937592,-91.9559599794242,www.thebankofhouston.com
13962,Bank of Hartington,Hartington,Nebraska,68739,229 N Broadway Ave,SM,0,1,02/28/1934,,143374,118767,42.6224179904081,-97.264369967051,www.bankofhartington.com
13983,The Granville National Bank,Granville,Illinois,61326,328 S Mccoy St,N,14035,1,02/27/1934,,116005,100361,41.2601729814243,-89.2284050347416,http://www.gnbonline.com
13986,"Transact Bank, National Association",Denver,Colorado,80202,700 17th St,N,8004,1,02/27/1934,,7259,5810,39.746141009846,-104.991471993267,www.transactbank.com
1399,Frandsen Bank & Trust,Lonsdale,Minnesota,55046,116 Central St W,SM,0,1,01/01/1934,,3604384,3077111,44.4808049893383,-93.4295989728671,frandsenbank.com
13990,Palo Savings Bank,Palo,Iowa,52324,2801 Hollenbeck Rd,NM,0,1,03/03/1934,,46711,42917,42.0656100064822,-91.8084499667438,www.palosavingsbank.com
13999,The Farmers and Merchants State Bank,Scotland,South Dakota,57059,550 Main St,NM,0,1,03/06/1934,,33249,29810,43.1498070029308,-97.7196750313601,http://wwwfmsbscotland.com
14,State Street Bank and Trust Company,Boston,Massachusetts,02114,One Congress Street,SM,0,1,01/01/1934,,366079000,286028000,42.3628544213077,-71.0598264127317,www.statestreet.com
14009,Chelsea State Bank,Chelsea,Michigan,48118,1010 S Main St,SM,0,1,03/07/1934,,414333,364365,42.3064170136612,-84.0222739633276,www.chelseastate.bank
14017,Middletown Valley Bank,Middletown,Maryland,21769,803 E Main St,NM,0,1,03/08/1934,,1092461,982890,39.4382340179,-77.527111963149,www.mvbbank.com
1402,Citizens Alliance Bank,Clara City,Minnesota,56222,55 1st St Nw,NM,0,1,01/01/1934,,1461611,1200801,44.955223265549,-95.368987720166,www.citizensalliancebank.com
14024,"Farmers and Merchants Bank of Mound City, Kansas",Mound City,Kansas,66056,103 S 5th St,NM,0,1,03/09/1934,,60161,55392,38.1423469857044,-94.8128590056733,www.fmbankmc.com
14025,Connections Bank,Platte City,Missouri,64079,1100 Branch St,NM,0,1,03/09/1934,,508106,453757,39.366402993615,-94.773402034665,www.connections.bank
14026,Scribner Bank,Scribner,Nebraska,68057,400 Main St,NM,0,1,03/09/1934,,85018,71206,41.6657669896566,-96.6652399937926,www.scribnerbank.com
14028,First Guaranty Bank,Hammond,Louisiana,70401,400 E Thomas St,NM,0,1,03/12/1934,,3794968,3358208,30.5047400065254,-90.4568140164282,www.fgb.net
14029,First Liberty Bank,Oklahoma City,Oklahoma,73120,9601 N May Ave,NM,0,1,01/01/1934,,835665,717061,35.568947980911,-97.56775001882,www.myfirstliberty.com
14036,The Missouri Bank,Warrenton,Missouri,63383,104 North Highway 47,SM,0,1,03/10/1934,,469030,413750,38.8118810061421,-91.1408639844232,http://www.themissouribank.com
14056,Farmers and Merchants Bank of St. Clair,Saint Clair,Missouri,63077,959 N Commercial Ave,NM,0,1,03/12/1934,,338765,299265,38.3548909567628,-90.9769877513907,www.fmb4banking.bank
14058,Great Plains State Bank,Petersburg,Nebraska,68652,140 Main St,NM,0,1,03/13/1934,,377561,314242,41.8535573330844,-98.0816795618696,www.gpsbanks.com
14065,Pinnacle Bank,Elberton,Georgia,30635,884 Elbert St,NM,0,1,03/14/1934,,2232023,1996133,34.0995210195424,-82.8506630206717,www.pinnaclebank.com
14069,State Bank of Scotia,Scotia,Nebraska,68875,104 S Main St,NM,0,1,04/01/1934,,58484,45808,41.4659839921938,-98.7033829832,StateBankofScotia.Bank
14073,County National Bank,Hillsdale,Michigan,49242,1 S Howell St,N,14062,1,03/19/1934,,1316416,1120434,41.9197669867052,-84.6317020266465,WWW.CNBB.BANK
14079,GNB Bank,Grundy Center,Iowa,50638,529 G Ave,SM,0,1,03/16/1934,,625381,515625,42.3617610020385,-92.7710389591619,www.gnbbank.com
14083,Bison State Bank,Bison,Kansas,67520,223 Main St,NM,0,1,03/21/1934,,119042,90787,38.5213489870175,-99.1984910234802,www.bisonstatebank.com
1409,Kensington Bank,Kensington,Minnesota,56343,11 Central Ave N,NM,0,1,01/01/1934,,462270,399102,45.7787330149574,-95.6952040156793,www.kensington.bank
14095,The First National Bank in Falfurrias,Falfurrias,Texas,78355,200 S Saint Marys St,N,14072,1,03/21/1934,,77111,69068,27.2258070005224,-98.1447749855671,www.fnbfal.com
14096,Generations Bank,Exeter,Nebraska,68351,139 S Exeter Ave,NM,0,1,03/21/1934,,58133,45473,40.6447099897287,-97.4505789752354,generations.bank
